MSOA11CD,msoa_name,latitude,longitude,postcode,nhs_region_code,region_code,constituency_code,travel_work_area_code,nhs_ccg_code,nhs_hospital_code,nhs_trust_code,nhs_trust_name,nhs_hospital_name,local_authority_code,local_authority_name,constituency_name,nhs_ccg_name,travel_work_area_name,nhs_stp_code,nhs_stp_name
E02000001,City of London,-0.078377978773564,51.5188946322671,E1 6AN,E40000003,E12000007,E14000639,E30000234,E38000035,RJ100,RTP,Guy's and St Thomas' NHS Foundation Trust,Guy's Hospital,E09000001,City of London,Cities of London and Westminster,NHS City and Hackney CCG,London,E54000029,East London Health and Care Partnership
E02000002,Marks Gate,0.14435807668628,51.5932805833608,RM5 2BG,E40000003,E12000007,E14000657,E30000234,E38000004,RF4DG,RF4,"Barking, Havering And Redbridge University Hospitals NHS Trust",King George Hospital,E09000002,Barking and Dagenham,Dagenham and Rainham,NHS Barking and Dagenham CCG,London,E54000029,East London Health and Care Partnership
E02000003,Chadwell Heath East,0.136910718632585,51.5678042714641,RM1 1HA,E40000003,E12000007,E14000657,E30000234,E38000004,RF4DG,RF4,"Barking, Havering And Redbridge University Hospitals NHS Trust",King George Hospital,E09000002,Barking and Dagenham,Dagenham and Rainham,NHS Barking and Dagenham CCG,London,E54000029,East London Health and Care Partnership
E02000004,Eastbrookend,0.168095398158,51.5541749701751,RM10 7AA,E40000003,E12000007,E14000657,E30000234,E38000004,RF4QH,RF4,"Barking, Havering And Redbridge University Hospitals NHS Trust",Queen's Hospital,E09000002,Barking and Dagenham,Dagenham and Rainham,NHS Barking and Dagenham CCG,London,E54000029,East London Health and Care Partnership
E02000005,Becontree Heath,0.14938595532494,51.5563356229802,RM10 7LJ,E40000003,E12000007,E14000657,E30000234,E38000004,RF4QH,RF4,"Barking, Havering And Redbridge University Hospitals NHS Trust",Queen's Hospital,E09000002,Barking and Dagenham,Dagenham and Rainham,NHS Barking and Dagenham CCG,London,E54000029,East London Health and Care Partnership
E02000007,Central Park & Frizlands Lane,0.151767213854854,51.5606355780448,RM10 7AE,E40000003,E12000007,E14000657,E30000234,E38000004,RF4QH,RF4,"Barking, Havering And Redbridge University Hospitals NHS Trust",Queen's Hospital,E09000002,Barking and Dagenham,Dagenham and Rainham,NHS Barking and Dagenham CCG,London,E54000029,East London Health and Care Partnership
E02000008,Becontree East,0.141981610628766,51.553494234837,RM10 7DE,E40000003,E12000007,E14000657,E30000234,E38000004,RF4QH,RF4,"Barking, Havering And Redbridge University Hospitals NHS Trust",Queen's Hospital,E09000002,Barking and Dagenham,Dagenham and Rainham,NHS Barking and Dagenham CCG,London,E54000029,East London Health and Care Partnership
E02000009,Becontree West,0.107277493472511,51.5507591368864,IG11 9BY,E40000003,E12000007,E14000540,E30000234,E38000004,RF4DG,RF4,"Barking, Havering And Redbridge University Hospitals NHS Trust",King George Hospital,E09000002,Barking and Dagenham,Barking,NHS Barking and Dagenham CCG,London,E54000029,East London Health and Care Partnership
E02000010,Dagenham North,0.152983434087806,51.5512516434931,RM10 7AN,E40000003,E12000007,E14000540,E30000234,E38000004,RF4QH,RF4,"Barking, Havering And Redbridge University Hospitals NHS Trust",Queen's Hospital,E09000002,Barking and Dagenham,Barking,NHS Barking and Dagenham CCG,London,E54000029,East London Health and Care Partnership
E02000011,Dagenham Eastbrook,0.165826495067796,51.5422380950507,RM10 7BZ,E40000003,E12000007,E14000657,E30000234,E38000004,RF4QH,RF4,"Barking, Havering And Redbridge University Hospitals NHS Trust",Queen's Hospital,E09000002,Barking and Dagenham,Dagenham and Rainham,NHS Barking and Dagenham CCG,London,E54000029,East London Health and Care Partnership
E02000012,Longbridge & Barking Park,0.091878194355302,51.5486877807054,IG11 8FF,E40000003,E12000007,E14000540,E30000234,E38000004,RF4DG,RF4,"Barking, Havering And Redbridge University Hospitals NHS Trust",King George Hospital,E09000002,Barking and Dagenham,Barking,NHS Barking and Dagenham CCG,London,E54000029,East London Health and Care Partnership
E02000013,Becontree South,0.124295548959457,51.5463604770774,RM8 2AW,E40000003,E12000007,E14000540,E30000234,E38000004,RF4DG,RF4,"Barking, Havering And Redbridge University Hospitals NHS Trust",King George Hospital,E09000002,Barking and Dagenham,Barking,NHS Barking and Dagenham CCG,London,E54000029,East London Health and Care Partnership
E02000014,Dagenham Central,0.14912914741872,51.5429228124379,RM10 8DP,E40000003,E12000007,E14000540,E30000234,E38000004,RF4QH,RF4,"Barking, Havering And Redbridge University Hospitals NHS Trust",Queen's Hospital,E09000002,Barking and Dagenham,Barking,NHS Barking and Dagenham CCG,London,E54000029,East London Health and Care Partnership
E02000015,Old Dagenham Park & Village,0.160886167036615,51.5423741453684,RM10 8AD,E40000003,E12000007,E14000657,E30000234,E38000004,RF4QH,RF4,"Barking, Havering And Redbridge University Hospitals NHS Trust",Queen's Hospital,E09000002,Barking and Dagenham,Dagenham and Rainham,NHS Barking and Dagenham CCG,London,E54000029,East London Health and Care Partnership
E02000016,Barking Central,0.077106874736062,51.5343999274055,IG11 7AR,E40000003,E12000007,E14000540,E30000234,E38000004,R1HNH,R1H,Barts Health NHS Trust,Newham General Hospital,E09000002,Barking and Dagenham,Barking,NHS Barking and Dagenham CCG,London,E54000029,East London Health and Care Partnership
E02000017,Barking East,0.088336787970585,51.5362329512066,IG11 7QL,E40000003,E12000007,E14000540,E30000234,E38000004,RF4DG,RF4,"Barking, Havering And Redbridge University Hospitals NHS Trust",King George Hospital,E09000002,Barking and Dagenham,Barking,NHS Barking and Dagenham CCG,London,E54000029,East London Health and Care Partnership
E02000018,Mayesbrook Park & Rippleside,0.104560757330108,51.5325167115228,IG11 0TS,E40000003,E12000007,E14000540,E30000234,E38000004,RF4DG,RF4,"Barking, Havering And Redbridge University Hospitals NHS Trust",King George Hospital,E09000002,Barking and Dagenham,Barking,NHS Barking and Dagenham CCG,London,E54000029,East London Health and Care Partnership
E02000019,Goresbrook & Scrattons Farm,0.122846601259392,51.5310269953562,IG11 0RH,E40000003,E12000007,E14000540,E30000234,E38000004,RF4DG,RF4,"Barking, Havering And Redbridge University Hospitals NHS Trust",King George Hospital,E09000002,Barking and Dagenham,Barking,NHS Barking and Dagenham CCG,London,E54000029,East London Health and Care Partnership
E02000020,Creekmouth & Barking Riverside,0.088200628331378,51.5345177502203,IG11 0AL,E40000003,E12000007,E14000540,E30000234,E38000004,RF4DG,RF4,"Barking, Havering And Redbridge University Hospitals NHS Trust",King George Hospital,E09000002,Barking and Dagenham,Barking,NHS Barking and Dagenham CCG,London,E54000029,East London Health and Care Partnership
E02000021,Rylands Estate & Dagenham Dock,0.155417954544842,51.5313323175317,RM10 9AB,E40000003,E12000007,E14000657,E30000234,E38000004,RF4QH,RF4,"Barking, Havering And Redbridge University Hospitals NHS Trust",Queen's Hospital,E09000002,Barking and Dagenham,Dagenham and Rainham,NHS Barking and Dagenham CCG,London,E54000029,East London Health and Care Partnership
E02000022,Gascoigne Estate & Roding Riverside,0.08626067038224,51.5293004495942,IG11 0AT,E40000003,E12000007,E14000540,E30000234,E38000004,R1HNH,R1H,Barts Health NHS Trust,Newham General Hospital,E09000002,Barking and Dagenham,Barking,NHS Barking and Dagenham CCG,London,E54000029,East London Health and Care Partnership
E02000023,Thames View,0.109415321468409,51.5311704805634,IG11 0AE,E40000003,E12000007,E14000540,E30000234,E38000004,RF4DG,RF4,"Barking, Havering And Redbridge University Hospitals NHS Trust",King George Hospital,E09000002,Barking and Dagenham,Barking,NHS Barking and Dagenham CCG,London,E54000029,East London Health and Care Partnership
E02000024,High Barnet & Hadley,-0.190979799600682,51.6628109169478,EN4 0NH,E40000003,E12000007,E14000636,E30000234,E38000240,RAL80,RAL,Royal Free London NHS Foundation Trust,Hadley Wood Hospital,E09000003,Barnet,Chipping Barnet,NHS North Central London CCG,London,E54000028,North London Partners in Health and Care
E02000025,Hadley Wood,-0.185650143363139,51.6568656261154,EN4 0LY,E40000003,E12000007,E14000636,E30000234,E38000240,RAL80,RAL,Royal Free London NHS Foundation Trust,Hadley Wood Hospital,E09000003,Barnet,Chipping Barnet,NHS North Central London CCG,London,E54000028,North London Partners in Health and Care
E02000026,Oak Hill,-0.155042207743741,51.6454898130367,EN4 8HR,E40000003,E12000007,E14000636,E30000234,E38000240,RAL80,RAL,Royal Free London NHS Foundation Trust,Hadley Wood Hospital,E09000003,Barnet,Chipping Barnet,NHS North Central London CCG,London,E54000028,North London Partners in Health and Care
E02000027,Ducks Island & Underhill,-0.21916464709943,51.643908221717,EN5 2AL,E40000003,E12000007,E14000636,E30000234,E38000240,RAL26,RAL,Royal Free London NHS Foundation Trust,Barnet Hospital,E09000003,Barnet,Chipping Barnet,NHS North Central London CCG,London,E54000028,North London Partners in Health and Care
E02000028,New Barnet West,-0.171118931437522,51.6432414872799,EN4 0AD,E40000003,E12000007,E14000636,E30000234,E38000240,RAL80,RAL,Royal Free London NHS Foundation Trust,Hadley Wood Hospital,E09000003,Barnet,Chipping Barnet,NHS North Central London CCG,London,E54000028,North London Partners in Health and Care
E02000029,New Barnet Town & East Barnet,-0.17004385242718,51.648764039294,EN4 8AA,E40000003,E12000007,E14000636,E30000234,E38000240,RAL80,RAL,Royal Free London NHS Foundation Trust,Hadley Wood Hospital,E09000003,Barnet,Chipping Barnet,NHS North Central London CCG,London,E54000028,North London Partners in Health and Care
E02000030,Totteridge & Barnet Gate,-0.240612149920519,51.642082445428,EN5 2AA,E40000003,E12000007,E14000636,E30000234,E38000240,RAL26,RAL,Royal Free London NHS Foundation Trust,Barnet Hospital,E09000003,Barnet,Chipping Barnet,NHS North Central London CCG,London,E54000028,North London Partners in Health and Care
E02000031,Oakleigh Park,-0.179037851040709,51.6414761953432,EN5 1BJ,E40000003,E12000007,E14000636,E30000234,E38000240,RAL80,RAL,Royal Free London NHS Foundation Trust,Hadley Wood Hospital,E09000003,Barnet,Chipping Barnet,NHS North Central London CCG,London,E54000028,North London Partners in Health and Care
E02000032,Osidge,-0.148178697713865,51.6358588225842,EN4 8JR,E40000003,E12000007,E14000636,E30000234,E38000240,RAL80,RAL,Royal Free London NHS Foundation Trust,Hadley Wood Hospital,E09000003,Barnet,Chipping Barnet,NHS North Central London CCG,London,E54000028,North London Partners in Health and Care
E02000033,Brunswick Park Road,-0.159447943291609,51.6330685869765,EN4 8ER,E40000003,E12000007,E14000636,E30000234,E38000240,RAL80,RAL,Royal Free London NHS Foundation Trust,Hadley Wood Hospital,E09000003,Barnet,Chipping Barnet,NHS North Central London CCG,London,E54000028,North London Partners in Health and Care
E02000034,Whetstone East,-0.176989480339938,51.6212027344045,N12 8FA,E40000003,E12000007,E14000703,E30000234,E38000240,RAL80,RAL,Royal Free London NHS Foundation Trust,Hadley Wood Hospital,E09000003,Barnet,Finchley and Golders Green,NHS North Central London CCG,London,E54000028,North London Partners in Health and Care
E02000035,Woodside Park,-0.180672089763096,51.6168986383131,N12 0DX,E40000003,E12000007,E14000636,E30000234,E38000240,RAL80,RAL,Royal Free London NHS Foundation Trust,Hadley Wood Hospital,E09000003,Barnet,Chipping Barnet,NHS North Central London CCG,London,E54000028,North London Partners in Health and Care
E02000036,Edgware East,-0.264382236998811,51.6214208873755,HA8 8BY,E40000003,E12000007,E14000741,E30000234,E38000240,RAL26,RAL,Royal Free London NHS Foundation Trust,Barnet Hospital,E09000003,Barnet,Hendon,NHS North Central London CCG,London,E54000028,North London Partners in Health and Care
E02000037,Edgware Park,-0.295878924729964,51.6251469083792,HA7 4LS,E40000003,E12000007,E14000741,E30000234,E38000240,R1K01,R1K,London North West University Healthcare NHS Trust,Northwick Park Hospital,E09000003,Barnet,Hendon,NHS North Central London CCG,London,E54000028,North London Partners in Health and Care
E02000038,Friern Barnet,-0.141216670126954,51.6121078795894,N11 1PX,E40000003,E12000007,E14000636,E30000234,E38000240,RKEQ4,RKE,Whittington Health NHS Trust,The Whittington Hospital,E09000003,Barnet,Chipping Barnet,NHS North Central London CCG,London,E54000028,North London Partners in Health and Care
E02000039,Mill Hill Park,-0.241150313081434,51.6154735324031,NW7 0AA,E40000003,E12000007,E14000741,E30000234,E38000240,RAL26,RAL,Royal Free London NHS Foundation Trust,Barnet Hospital,E09000003,Barnet,Hendon,NHS North Central London CCG,London,E54000028,North London Partners in Health and Care
E02000040,Mill Hill East,-0.201779714479408,51.6149759883155,N12 7BN,E40000003,E12000007,E14000741,E30000234,E38000240,RAL26,RAL,Royal Free London NHS Foundation Trust,Barnet Hospital,E09000003,Barnet,Hendon,NHS North Central London CCG,London,E54000028,North London Partners in Health and Care
E02000041,Edgware Central,-0.277808498830806,51.6132467358357,HA8 0BD,E40000003,E12000007,E14000741,E30000234,E38000240,R1K01,R1K,London North West University Healthcare NHS Trust,Northwick Park Hospital,E09000003,Barnet,Hendon,NHS North Central London CCG,London,E54000028,North London Partners in Health and Care
E02000042,North Finchley,-0.174840741337477,51.6099469623284,N12 0AA,E40000003,E12000007,E14000703,E30000234,E38000240,RAL80,RAL,Royal Free London NHS Foundation Trust,Hadley Wood Hospital,E09000003,Barnet,Finchley and Golders Green,NHS North Central London CCG,London,E54000028,North London Partners in Health and Care
E02000043,West Finchley,-0.19262345282586,51.6174879978223,N12 7AA,E40000003,E12000007,E14000636,E30000234,E38000240,RAL80,RAL,Royal Free London NHS Foundation Trust,Hadley Wood Hospital,E09000003,Barnet,Chipping Barnet,NHS North Central London CCG,London,E54000028,North London Partners in Health and Care
E02000044,Mill Hill Broadway,-0.25632560129715,51.6031824484071,HA8 0DZ,E40000003,E12000007,E14000741,E30000234,E38000240,RAL26,RAL,Royal Free London NHS Foundation Trust,Barnet Hospital,E09000003,Barnet,Hendon,NHS North Central London CCG,London,E54000028,North London Partners in Health and Care
E02000045,Colney Hatch,-0.15068522989635,51.600531366451,N10 1AA,E40000003,E12000007,E14000636,E30000234,E38000240,RKEQ4,RKE,Whittington Health NHS Trust,The Whittington Hospital,E09000003,Barnet,Chipping Barnet,NHS North Central London CCG,London,E54000028,North London Partners in Health and Care
E02000046,Church End,-0.192540547214165,51.6064802119176,N3 1AA,E40000003,E12000007,E14000703,E30000234,E38000240,RAL80,RAL,Royal Free London NHS Foundation Trust,Hadley Wood Hospital,E09000003,Barnet,Finchley and Golders Green,NHS North Central London CCG,London,E54000028,North London Partners in Health and Care
E02000047,Burnt Oak & Watling Park,-0.271950839349888,51.6077473355984,HA8 0AA,E40000003,E12000007,E14000741,E30000234,E38000240,R1K01,R1K,London North West University Healthcare NHS Trust,Northwick Park Hospital,E09000003,Barnet,Hendon,NHS North Central London CCG,London,E54000028,North London Partners in Health and Care
E02000048,Copthall & Downage,-0.195033754037257,51.6015098826962,N3 1AY,E40000003,E12000007,E14000703,E30000234,E38000240,RAL80,RAL,Royal Free London NHS Foundation Trust,Hadley Wood Hospital,E09000003,Barnet,Finchley and Golders Green,NHS North Central London CCG,London,E54000028,North London Partners in Health and Care
E02000049,Grahame Park,-0.244679829150327,51.6071006142973,NW7 2LA,E40000003,E12000007,E14000741,E30000234,E38000240,RAL26,RAL,Royal Free London NHS Foundation Trust,Barnet Hospital,E09000003,Barnet,Hendon,NHS North Central London CCG,London,E54000028,North London Partners in Health and Care
E02000050,Fallow Corner,-0.157483403349142,51.6052424126556,N10 1JW,E40000003,E12000007,E14000703,E30000234,E38000240,RKEQ4,RKE,Whittington Health NHS Trust,The Whittington Hospital,E09000003,Barnet,Finchley and Golders Green,NHS North Central London CCG,London,E54000028,North London Partners in Health and Care
E02000051,Finchley Central,-0.195225088832077,51.6010542188596,N3 1BF,E40000003,E12000007,E14000703,E30000234,E38000240,RAL26,RAL,Royal Free London NHS Foundation Trust,Barnet Hospital,E09000003,Barnet,Finchley and Golders Green,NHS North Central London CCG,London,E54000028,North London Partners in Health and Care
E02000052,East Finchley,-0.167539585875309,51.5907691517812,N2 0AU,E40000003,E12000007,E14000703,E30000234,E38000240,RKEQ4,RKE,Whittington Health NHS Trust,The Whittington Hospital,E09000003,Barnet,Finchley and Golders Green,NHS North Central London CCG,London,E54000028,North London Partners in Health and Care
E02000053,Colindale,-0.240136766864558,51.5938500711293,NW4 4SF,E40000003,E12000007,E14000741,E30000234,E38000240,RAL26,RAL,Royal Free London NHS Foundation Trust,Barnet Hospital,E09000003,Barnet,Hendon,NHS North Central London CCG,London,E54000028,North London Partners in Health and Care
E02000054,North Hendon & Sunny Hill,-0.221948857522609,51.5922811568569,NW4 1AA,E40000003,E12000007,E14000741,E30000234,E38000240,RAL26,RAL,Royal Free London NHS Foundation Trust,Barnet Hospital,E09000003,Barnet,Hendon,NHS North Central London CCG,London,E54000028,North London Partners in Health and Care
E02000055,Hendon Central,-0.2230922113535,51.5922085503489,NW4 1AB,E40000003,E12000007,E14000741,E30000234,E38000240,RAL26,RAL,Royal Free London NHS Foundation Trust,Barnet Hospital,E09000003,Barnet,Hendon,NHS North Central London CCG,London,E54000028,North London Partners in Health and Care
E02000056,Hampstead Garden Suburb,-0.170106103735552,51.5861780881226,N2 0AA,E40000003,E12000007,E14000703,E30000234,E38000240,RAL01,RAL,Royal Free London NHS Foundation Trust,Royal Free Hospital,E09000003,Barnet,Finchley and Golders Green,NHS North Central London CCG,London,E54000028,North London Partners in Health and Care
E02000057,Hendon Park,-0.213251120046559,51.5799551910174,NW11 9JQ,E40000003,E12000007,E14000741,E30000234,E38000240,RAL01,RAL,Royal Free London NHS Foundation Trust,Royal Free Hospital,E09000003,Barnet,Hendon,NHS North Central London CCG,London,E54000028,North London Partners in Health and Care
E02000058,Temple Fortune,-0.195550287796922,51.589575865946,N3 3JR,E40000003,E12000007,E14000703,E30000234,E38000240,RAL01,RAL,Royal Free London NHS Foundation Trust,Royal Free Hospital,E09000003,Barnet,Finchley and Golders Green,NHS North Central London CCG,London,E54000028,North London Partners in Health and Care
E02000059,West Hendon,-0.231975624030606,51.5720196772127,NW2 1LY,E40000003,E12000007,E14000741,E30000234,E38000240,RYJ04,RYJ,Imperial College Healthcare NHS Trust,Queen Charlotte's Hospital,E09000003,Barnet,Hendon,NHS North Central London CCG,London,E54000028,North London Partners in Health and Care
E02000060,Golders Green North,-0.200507903486342,51.5879614656024,NW11 0AF,E40000003,E12000007,E14000703,E30000234,E38000240,RAL01,RAL,Royal Free London NHS Foundation Trust,Royal Free Hospital,E09000003,Barnet,Finchley and Golders Green,NHS North Central London CCG,London,E54000028,North London Partners in Health and Care
E02000061,Golders Green South,-0.197702227978818,51.5760662467289,NW11 0NX,E40000003,E12000007,E14000703,E30000234,E38000240,RAL01,RAL,Royal Free London NHS Foundation Trust,Royal Free Hospital,E09000003,Barnet,Finchley and Golders Green,NHS North Central London CCG,London,E54000028,North London Partners in Health and Care
E02000062,Brent Cross & Staples Corner,-0.211050276393005,51.5731592521363,NW11 9EH,E40000003,E12000007,E14000703,E30000234,E38000240,RAL01,RAL,Royal Free London NHS Foundation Trust,Royal Free Hospital,E09000003,Barnet,Finchley and Golders Green,NHS North Central London CCG,London,E54000028,North London Partners in Health and Care
E02000063,North Cricklewood,-0.213921084862408,51.5628795427093,NW11 8HZ,E40000003,E12000007,E14000703,E30000234,E38000240,RAL01,RAL,Royal Free London NHS Foundation Trust,Royal Free Hospital,E09000003,Barnet,Finchley and Golders Green,NHS North Central London CCG,London,E54000028,North London Partners in Health and Care
E02000064,Childs Hill,-0.19747223093008,51.5632753811159,NW11 8AT,E40000003,E12000007,E14000703,E30000234,E38000240,RAL01,RAL,Royal Free London NHS Foundation Trust,Royal Free Hospital,E09000003,Barnet,Finchley and Golders Green,NHS North Central London CCG,London,E54000028,North London Partners in Health and Care
E02000065,Crossway Park,0.149300067456517,51.4963269719403,DA18 4AA,E40000003,E12000007,E14000696,E30000234,E38000244,RF4QH,RF4,"Barking, Havering And Redbridge University Hospitals NHS Trust",Queen's Hospital,E09000004,Bexley,Erith and Thamesmead,NHS South East London CCG,London,E54000030,Our Healthier South East London
E02000066,South Thamesmead,0.126667594192102,51.4901747726074,DA17 5DH,E40000003,E12000007,E14000696,E30000234,E38000244,RN7QM,RN7,Dartford And Gravesham NHS Trust,Queen Mary's Hospital Sidcup,E09000004,Bexley,Erith and Thamesmead,NHS South East London CCG,London,E54000030,Our Healthier South East London
E02000067,Belvedere & Lessness Heath,0.147281019575302,51.4907703491753,DA17 5AA,E40000003,E12000007,E14000696,E30000234,E38000244,RF4QH,RF4,"Barking, Havering And Redbridge University Hospitals NHS Trust",Queen's Hospital,E09000004,Bexley,Erith and Thamesmead,NHS South East London CCG,London,E54000030,Our Healthier South East London
E02000068,Erith East,0.159694885796355,51.4910010166422,DA17 6AA,E40000003,E12000007,E14000696,E30000234,E38000244,RF4QH,RF4,"Barking, Havering And Redbridge University Hospitals NHS Trust",Queen's Hospital,E09000004,Bexley,Erith and Thamesmead,NHS South East London CCG,London,E54000030,Our Healthier South East London
E02000069,Erith West,0.14843821308154,51.4868911760887,DA17 5BW,E40000003,E12000007,E14000696,E30000234,E38000244,RN7QM,RN7,Dartford And Gravesham NHS Trust,Queen Mary's Hospital Sidcup,E09000004,Bexley,Erith and Thamesmead,NHS South East London CCG,London,E54000030,Our Healthier South East London
E02000070,Lesnes Abbey,0.139614419259262,51.4830236893953,DA17 5DZ,E40000003,E12000007,E14000696,E30000234,E38000244,RN7QM,RN7,Dartford And Gravesham NHS Trust,Queen Mary's Hospital Sidcup,E09000004,Bexley,Erith and Thamesmead,NHS South East London CCG,London,E54000030,Our Healthier South East London
E02000071,Northumberland Heath,0.152465076844931,51.4782020218431,DA17 6LN,E40000003,E12000007,E14000696,E30000234,E38000244,RN7QM,RN7,Dartford And Gravesham NHS Trust,Queen Mary's Hospital Sidcup,E09000004,Bexley,Erith and Thamesmead,NHS South East London CCG,London,E54000030,Our Healthier South East London
E02000072,Slade Green & Crayford Marshes,0.202076255880619,51.4575323986846,DA1 5QJ,E40000003,E12000007,E14000558,E30000234,E38000244,RN707,RN7,Dartford And Gravesham NHS Trust,Darent Valley Hospital,E09000004,Bexley,Bexleyheath and Crayford,NHS South East London CCG,London,E54000030,Our Healthier South East London
E02000073,Bostall,0.119027447054124,51.4754657972214,DA16 1AR,E40000003,E12000007,E14000558,E30000234,E38000244,RN7QM,RN7,Dartford And Gravesham NHS Trust,Queen Mary's Hospital Sidcup,E09000004,Bexley,Bexleyheath and Crayford,NHS South East London CCG,London,E54000030,Our Healthier South East London
E02000074,Lesney Farm & Colyers East,0.178722721243258,51.4601626362264,DA1 4FB,E40000003,E12000007,E14000558,E30000234,E38000244,RN707,RN7,Dartford And Gravesham NHS Trust,Darent Valley Hospital,E09000004,Bexley,Bexleyheath and Crayford,NHS South East London CCG,London,E54000030,Our Healthier South East London
E02000075,Bursted Wood,0.137268803210455,51.4639833647566,DA7 4DS,E40000003,E12000007,E14000558,E30000234,E38000244,RN7QM,RN7,Dartford And Gravesham NHS Trust,Queen Mary's Hospital Sidcup,E09000004,Bexley,Bexleyheath and Crayford,NHS South East London CCG,London,E54000030,Our Healthier South East London
E02000077,St Michael's,0.116309219628272,51.4718098048105,DA16 1DE,E40000003,E12000007,E14000558,E30000234,E38000244,RN7QM,RN7,Dartford And Gravesham NHS Trust,Queen Mary's Hospital Sidcup,E09000004,Bexley,Bexleyheath and Crayford,NHS South East London CCG,London,E54000030,Our Healthier South East London
E02000078,Barnehurst North,0.181806875220123,51.4638553855537,DA1 4RA,E40000003,E12000007,E14000558,E30000234,E38000244,RN707,RN7,Dartford And Gravesham NHS Trust,Darent Valley Hospital,E09000004,Bexley,Bexleyheath and Crayford,NHS South East London CCG,London,E54000030,Our Healthier South East London
E02000079,Bexleyheath Broadway,0.134756025948696,51.4632017994642,DA16 1AN,E40000003,E12000007,E14000558,E30000234,E38000244,RN7QM,RN7,Dartford And Gravesham NHS Trust,Queen Mary's Hospital Sidcup,E09000004,Bexley,Bexleyheath and Crayford,NHS South East London CCG,London,E54000030,Our Healthier South East London
E02000080,Welling,0.096577393453521,51.4541335014044,DA15 8PF,E40000003,E12000007,E14000869,E30000234,E38000244,RN7QM,RN7,Dartford And Gravesham NHS Trust,Queen Mary's Hospital Sidcup,E09000004,Bexley,Old Bexley and Sidcup,NHS South East London CCG,London,E54000030,Our Healthier South East London
E02000081,Barnehurst South,0.166625521945255,51.4549010827349,DA1 4DL,E40000003,E12000007,E14000558,E30000234,E38000244,RN7QM,RN7,Dartford And Gravesham NHS Trust,Queen Mary's Hospital Sidcup,E09000004,Bexley,Bexleyheath and Crayford,NHS South East London CCG,London,E54000030,Our Healthier South East London
E02000082,Falconwood,0.100889784034178,51.453067067947,DA15 8PA,E40000003,E12000007,E14000869,E30000234,E38000244,RN7QM,RN7,Dartford And Gravesham NHS Trust,Queen Mary's Hospital Sidcup,E09000004,Bexley,Old Bexley and Sidcup,NHS South East London CCG,London,E54000030,Our Healthier South East London
E02000083,Crayford,0.182033120402457,51.4447590497514,DA1 3LD,E40000003,E12000007,E14000558,E30000234,E38000244,RN707,RN7,Dartford And Gravesham NHS Trust,Darent Valley Hospital,E09000004,Bexley,Bexleyheath and Crayford,NHS South East London CCG,London,E54000030,Our Healthier South East London
E02000084,Danson Park,0.122109431728397,51.461515927173,DA16 1HP,E40000003,E12000007,E14000558,E30000234,E38000244,RN7QM,RN7,Dartford And Gravesham NHS Trust,Queen Mary's Hospital Sidcup,E09000004,Bexley,Bexleyheath and Crayford,NHS South East London CCG,London,E54000030,Our Healthier South East London
E02000085,Blackfen,0.102132889663203,51.446605826557,DA15 8LN,E40000003,E12000007,E14000869,E30000234,E38000244,RN7QM,RN7,Dartford And Gravesham NHS Trust,Queen Mary's Hospital Sidcup,E09000004,Bexley,Old Bexley and Sidcup,NHS South East London CCG,London,E54000030,Our Healthier South East London
E02000086,Lamorbey,0.097234887109165,51.4508932751207,DA15 8AZ,E40000003,E12000007,E14000869,E30000234,E38000244,RN7QM,RN7,Dartford And Gravesham NHS Trust,Queen Mary's Hospital Sidcup,E09000004,Bexley,Old Bexley and Sidcup,NHS South East London CCG,London,E54000030,Our Healthier South East London
E02000087,Bexley Village,0.150016729656555,51.4417804123558,DA5 1AA,E40000003,E12000007,E14000869,E30000234,E38000244,RN7QM,RN7,Dartford And Gravesham NHS Trust,Queen Mary's Hospital Sidcup,E09000004,Bexley,Old Bexley and Sidcup,NHS South East London CCG,London,E54000030,Our Healthier South East London
E02000088,Albany Park,0.109115519235612,51.4335574889692,DA14 4JB,E40000003,E12000007,E14000869,E30000234,E38000244,RN7QM,RN7,Dartford And Gravesham NHS Trust,Queen Mary's Hospital Sidcup,E09000004,Bexley,Old Bexley and Sidcup,NHS South East London CCG,London,E54000030,Our Healthier South East London
E02000089,Longlands & Halfway,0.082143370612384,51.4308022969027,DA14 6QG,E40000003,E12000007,E14000869,E30000234,E38000244,RN7QM,RN7,Dartford And Gravesham NHS Trust,Queen Mary's Hospital Sidcup,E09000004,Bexley,Old Bexley and Sidcup,NHS South East London CCG,London,E54000030,Our Healthier South East London
E02000090,Sidcup East,0.103844866663117,51.4312600524818,DA14 4AG,E40000003,E12000007,E14000869,E30000234,E38000244,RN7QM,RN7,Dartford And Gravesham NHS Trust,Queen Mary's Hospital Sidcup,E09000004,Bexley,Old Bexley and Sidcup,NHS South East London CCG,London,E54000030,Our Healthier South East London
E02000091,Sidcup West,0.105063756366598,51.4264808321944,DA14 4AA,E40000003,E12000007,E14000869,E30000234,E38000244,RN7QM,RN7,Dartford And Gravesham NHS Trust,Queen Mary's Hospital Sidcup,E09000004,Bexley,Old Bexley and Sidcup,NHS South East London CCG,London,E54000030,Our Healthier South East London
E02000092,Foots Cray Meadows,0.127780984384478,51.4339755679415,DA14 4PH,E40000003,E12000007,E14000869,E30000234,E38000244,RN7QM,RN7,Dartford And Gravesham NHS Trust,Queen Mary's Hospital Sidcup,E09000004,Bexley,Old Bexley and Sidcup,NHS South East London CCG,London,E54000030,Our Healthier South East London
E02000093,Queensbury South,-0.287430902788111,51.5928129724131,HA7 1EF,E40000003,E12000007,E14000592,E30000234,E38000020,R1K01,R1K,London North West University Healthcare NHS Trust,Northwick Park Hospital,E09000005,Brent,Brent North,NHS Brent CCG,London,E54000027,North West London Health and Care Partnership
E02000094,Kingsbury East & Colindale,-0.260388909456143,51.5845116372207,NW9 0AA,E40000003,E12000007,E14000592,E30000234,E38000020,R1K02,R1K,London North West University Healthcare NHS Trust,Central Middlesex Hospital,E09000005,Brent,Brent North,NHS Brent CCG,London,E54000027,North West London Health and Care Partnership
E02000095,Kingsbury West,-0.298645877535695,51.5828507307861,HA3 0SH,E40000003,E12000007,E14000592,E30000234,E38000020,R1K01,R1K,London North West University Healthcare NHS Trust,Northwick Park Hospital,E09000005,Brent,Brent North,NHS Brent CCG,London,E54000027,North West London Health and Care Partnership
E02000096,Kenton Woodcock Park,-0.302611060097087,51.5810287733675,HA3 0AJ,E40000003,E12000007,E14000592,E30000234,E38000020,R1K01,R1K,London North West University Healthcare NHS Trust,Northwick Park Hospital,E09000005,Brent,Brent North,NHS Brent CCG,London,E54000027,North West London Health and Care Partnership
E02000097,Kingsbury South,-0.260661972476176,51.5830319221251,NW9 0XD,E40000003,E12000007,E14000592,E30000234,E38000020,R1K02,R1K,London North West University Healthcare NHS Trust,Central Middlesex Hospital,E09000005,Brent,Brent North,NHS Brent CCG,London,E54000027,North West London Health and Care Partnership
E02000098,Barnhill The Avenue,-0.29498620028042,51.5722677210807,HA3 0PS,E40000003,E12000007,E14000592,E30000234,E38000020,R1K01,R1K,London North West University Healthcare NHS Trust,Northwick Park Hospital,E09000005,Brent,Brent North,NHS Brent CCG,London,E54000027,North West London Health and Care Partnership
E02000099,Preston Park & East Lane,-0.294948987187724,51.5721053202853,HA3 0PT,E40000003,E12000007,E14000592,E30000234,E38000020,R1K01,R1K,London North West University Healthcare NHS Trust,Northwick Park Hospital,E09000005,Brent,Brent North,NHS Brent CCG,London,E54000027,North West London Health and Care Partnership
E02000100,Northwick Park,-0.329850317125051,51.5608629886352,HA0 2QT,E40000003,E12000007,E14000592,E30000234,E38000020,R1K01,R1K,London North West University Healthcare NHS Trust,Northwick Park Hospital,E09000005,Brent,Brent North,NHS Brent CCG,London,E54000027,North West London Health and Care Partnership
E02000101,Forty Lane,-0.273975654454942,51.5665292424901,HA9 1AJ,E40000003,E12000007,E14000592,E30000234,E38000020,R1K02,R1K,London North West University Healthcare NHS Trust,Central Middlesex Hospital,E09000005,Brent,Brent North,NHS Brent CCG,London,E54000027,North West London Health and Care Partnership
E02000102,Welsh Harp,-0.26299185537254,51.5605582326348,NW10 0AL,E40000003,E12000007,E14000591,E30000234,E38000020,R1K02,R1K,London North West University Healthcare NHS Trust,Central Middlesex Hospital,E09000005,Brent,Brent Central,NHS Brent CCG,London,E54000027,North West London Health and Care Partnership
E02000103,Dollis Hill,-0.226640889317147,51.565608390372,NW2 6BA,E40000003,E12000007,E14000591,E30000234,E38000020,RYJ04,RYJ,Imperial College Healthcare NHS Trust,Queen Charlotte's Hospital,E09000005,Brent,Brent Central,NHS Brent CCG,London,E54000027,North West London Health and Care Partnership
E02000104,Wembley North,-0.28752945698467,51.5621777092858,HA9 0JE,E40000003,E12000007,E14000592,E30000234,E38000020,R1K02,R1K,London North West University Healthcare NHS Trust,Central Middlesex Hospital,E09000005,Brent,Brent North,NHS Brent CCG,London,E54000027,North West London Health and Care Partnership
E02000105,Sudbury East,-0.316584462288961,51.5555837973341,HA0 2DD,E40000003,E12000007,E14000592,E30000234,E38000020,R1K03,R1K,London North West University Healthcare NHS Trust,St Marks Hospital,E09000005,Brent,Brent North,NHS Brent CCG,London,E54000027,North West London Health and Care Partnership
E02000106,Neasden,-0.249254492547246,51.5591223182338,NW10 0AA,E40000003,E12000007,E14000591,E30000234,E38000020,R1K02,R1K,London North West University Healthcare NHS Trust,Central Middlesex Hospital,E09000005,Brent,Brent Central,NHS Brent CCG,London,E54000027,North West London Health and Care Partnership
E02000107,Cricklewood Anson Road,-0.215609229476906,51.5566103900726,NW2 1ER,E40000003,E12000007,E14000591,E30000234,E38000020,RYJ03,RYJ,Imperial College Healthcare NHS Trust,Hammersmith Hospital,E09000005,Brent,Brent Central,NHS Brent CCG,London,E54000027,North West London Health and Care Partnership
E02000108,Sudbury West,-0.321912920928742,51.5554352550818,HA0 2FA,E40000003,E12000007,E14000592,E30000234,E38000020,R1K03,R1K,London North West University Healthcare NHS Trust,St Marks Hospital,E09000005,Brent,Brent North,NHS Brent CCG,London,E54000027,North West London Health and Care Partnership
E02000109,Tokyngton,-0.28281965075216,51.5581342869632,HA9 0AA,E40000003,E12000007,E14000591,E30000234,E38000020,R1K02,R1K,London North West University Healthcare NHS Trust,Central Middlesex Hospital,E09000005,Brent,Brent Central,NHS Brent CCG,London,E54000027,North West London Health and Care Partnership
E02000110,Dudden Hill,-0.242882888185977,51.554503914516,NW10 1BA,E40000003,E12000007,E14000591,E30000234,E38000020,R1K02,R1K,London North West University Healthcare NHS Trust,Central Middlesex Hospital,E09000005,Brent,Brent Central,NHS Brent CCG,London,E54000027,North West London Health and Care Partnership
E02000111,Wembley West,-0.307212237643594,51.5511865039776,HA0 1BB,E40000003,E12000007,E14000592,E30000234,E38000020,R1K03,R1K,London North West University Healthcare NHS Trust,St Marks Hospital,E09000005,Brent,Brent North,NHS Brent CCG,London,E54000027,North West London Health and Care Partnership
E02000112,Wembley East,-0.298650741446499,51.5521778338931,HA0 2AD,E40000003,E12000007,E14000592,E30000234,E38000020,R1K01,R1K,London North West University Healthcare NHS Trust,Northwick Park Hospital,E09000005,Brent,Brent North,NHS Brent CCG,London,E54000027,North West London Health and Care Partnership
E02000113,St Raphaels,-0.253282602287999,51.5530224243982,NW10 0AB,E40000003,E12000007,E14000591,E30000234,E38000020,R1K02,R1K,London North West University Healthcare NHS Trust,Central Middlesex Hospital,E09000005,Brent,Brent Central,NHS Brent CCG,London,E54000027,North West London Health and Care Partnership
E02000114,Willesden Green,-0.229965926633559,51.5427813683865,NW10 2AD,E40000003,E12000007,E14000727,E30000234,E38000020,RYJ04,RYJ,Imperial College Healthcare NHS Trust,Queen Charlotte's Hospital,E09000005,Brent,Hampstead and Kilburn,NHS Brent CCG,London,E54000027,North West London Health and Care Partnership
E02000115,Brondesbury,-0.205870750817075,51.5474692271984,NW2 3BA,E40000003,E12000007,E14000591,E30000234,E38000020,RAL01,RAL,Royal Free London NHS Foundation Trust,Royal Free Hospital,E09000005,Brent,Brent Central,NHS Brent CCG,London,E54000027,North West London Health and Care Partnership
E02000116,Roundwood Park,-0.239971336842784,51.5495863315273,NW10 1AQ,E40000003,E12000007,E14000591,E30000234,E38000020,RYJ04,RYJ,Imperial College Healthcare NHS Trust,Queen Charlotte's Hospital,E09000005,Brent,Brent Central,NHS Brent CCG,London,E54000027,North West London Health and Care Partnership
E02000117,Church End,-0.248732514661771,51.5498072656683,NW10 2AQ,E40000003,E12000007,E14000591,E30000234,E38000020,R1K02,R1K,London North West University Healthcare NHS Trust,Central Middlesex Hospital,E09000005,Brent,Brent Central,NHS Brent CCG,London,E54000027,North West London Health and Care Partnership
E02000118,Alperton East,-0.285524159351475,51.5387679588929,HA0 1FR,E40000003,E12000007,E14000592,E30000234,E38000020,R1K02,R1K,London North West University Healthcare NHS Trust,Central Middlesex Hospital,E09000005,Brent,Brent North,NHS Brent CCG,London,E54000027,North West London Health and Care Partnership
E02000119,Stonebridge,-0.271362494732248,51.5429845814251,NW10 0RG,E40000003,E12000007,E14000591,E30000234,E38000020,R1K02,R1K,London North West University Healthcare NHS Trust,Central Middlesex Hospital,E09000005,Brent,Brent Central,NHS Brent CCG,London,E54000027,North West London Health and Care Partnership
E02000120,Kilburn West,-0.194658102250303,51.5374233506252,NW6 6AA,E40000003,E12000007,E14000727,E30000234,E38000020,RYJ01,RYJ,Imperial College Healthcare NHS Trust,St Mary's Hospital (Hq),E09000005,Brent,Hampstead and Kilburn,NHS Brent CCG,London,E54000027,North West London Health and Care Partnership
E02000121,Alperton West,-0.303457276112027,51.5400715701141,HA0 1AA,E40000003,E12000007,E14000592,E30000234,E38000020,R1K02,R1K,London North West University Healthcare NHS Trust,Central Middlesex Hospital,E09000005,Brent,Brent North,NHS Brent CCG,London,E54000027,North West London Health and Care Partnership
E02000122,Brondesbury Park,-0.227581414320769,51.5425385413755,NW10 2AA,E40000003,E12000007,E14000727,E30000234,E38000020,RYJ04,RYJ,Imperial College Healthcare NHS Trust,Queen Charlotte's Hospital,E09000005,Brent,Hampstead and Kilburn,NHS Brent CCG,London,E54000027,North West London Health and Care Partnership
E02000123,Harlesden,-0.248274361688653,51.5339555402991,NW10 0BS,E40000003,E12000007,E14000591,E30000234,E38000020,R1K02,R1K,London North West University Healthcare NHS Trust,Central Middlesex Hospital,E09000005,Brent,Brent Central,NHS Brent CCG,London,E54000027,North West London Health and Care Partnership
E02000124,Queens Park,-0.214875899164591,51.536653607551,NW10 3HH,E40000003,E12000007,E14000727,E30000234,E38000020,RYJ03,RYJ,Imperial College Healthcare NHS Trust,Hammersmith Hospital,E09000005,Brent,Hampstead and Kilburn,NHS Brent CCG,London,E54000027,North West London Health and Care Partnership
E02000125,Kensal Green,-0.230018277759871,51.5366042548579,NW10 3AX,E40000003,E12000007,E14000591,E30000234,E38000020,RYJ04,RYJ,Imperial College Healthcare NHS Trust,Queen Charlotte's Hospital,E09000005,Brent,Brent Central,NHS Brent CCG,London,E54000027,North West London Health and Care Partnership
E02000126,Kilburn Park,-0.194643690233826,51.5359663258116,N8 0HW,E40000003,E12000007,E14000727,E30000234,E38000020,RYJ01,RYJ,Imperial College Healthcare NHS Trust,St Mary's Hospital (Hq),E09000005,Brent,Hampstead and Kilburn,NHS Brent CCG,London,E54000027,North West London Health and Care Partnership
E02000127,Mottingham,0.05265847585936,51.4255129665416,BR7 5EN,E40000003,E12000007,E14000604,E30000234,E38000244,RN7QM,RN7,Dartford And Gravesham NHS Trust,Queen Mary's Hospital Sidcup,E09000006,Bromley,Bromley and Chislehurst,NHS South East London CCG,London,E54000030,Our Healthier South East London
E02000128,Chislehurst North,0.067888990879879,51.4174934418325,BR7 5AE,E40000003,E12000007,E14000604,E30000234,E38000244,RN7QM,RN7,Dartford And Gravesham NHS Trust,Queen Mary's Hospital Sidcup,E09000006,Bromley,Bromley and Chislehurst,NHS South East London CCG,London,E54000030,Our Healthier South East London
E02000130,Penge East,-0.037479080610776,51.4224161153543,BR3 1BW,E40000003,E12000007,E14000788,E30000234,E38000244,RJ224,RJ2,Lewisham And Greenwich NHS Trust,University Hospital Lewisham,E09000006,Bromley,Lewisham West and Penge,NHS South East London CCG,London,E54000030,Our Healthier South East London
E02000131,Crystal Palace Park,-0.074312270352284,51.4238636288182,SE19 1UE,E40000003,E12000007,E14000788,E30000234,E38000244,RJZ01,RJZ,King's College Hospital NHS Foundation Trust,King's College Hospital (Denmark Hill),E09000006,Bromley,Lewisham West and Penge,NHS South East London CCG,London,E54000030,Our Healthier South East London
E02000132,New Beckenham,-0.032071742823437,51.4066508563125,BR3 1AB,E40000003,E12000007,E14000551,E30000234,E38000244,RJ224,RJ2,Lewisham And Greenwich NHS Trust,University Hospital Lewisham,E09000006,Bromley,Beckenham,NHS South East London CCG,London,E54000030,Our Healthier South East London
E02000133,Chislehurst West & Elmstead,0.043644169817927,51.4033861684046,BR1 2AA,E40000003,E12000007,E14000604,E30000234,E38000244,RJZ30,RJZ,King's College Hospital NHS Foundation Trust,Princess Royal University Hospital,E09000006,Bromley,Bromley and Chislehurst,NHS South East London CCG,London,E54000030,Our Healthier South East London
E02000134,Bromley North & Sundridge,0.01523419110221,51.406332875303,BR1 1AB,E40000003,E12000007,E14000604,E30000234,E38000244,RJ224,RJ2,Lewisham And Greenwich NHS Trust,University Hospital Lewisham,E09000006,Bromley,Bromley and Chislehurst,NHS South East London CCG,London,E54000030,Our Healthier South East London
E02000135,Anerley North & Penge West,-0.056058784254176,51.4109810890194,SE20 7AD,E40000003,E12000007,E14000788,E30000234,E38000244,RJ611,RJ6,Croydon Health Services NHS Trust,Croydon University Hospital,E09000006,Bromley,Lewisham West and Penge,NHS South East London CCG,London,E54000030,Our Healthier South East London
E02000136,Chislehurst East & Hoblingwell Wood,0.102568514658273,51.406282411889,BR5 2LA,E40000003,E12000007,E14000604,E30000234,E38000244,RN7QM,RN7,Dartford And Gravesham NHS Trust,Queen Mary's Hospital Sidcup,E09000006,Bromley,Bromley and Chislehurst,NHS South East London CCG,London,E54000030,Our Healthier South East London
E02000137,Shortlands Bromley Road,0.003645095229651,51.4142204381365,BR1 3SJ,E40000003,E12000007,E14000604,E30000234,E38000244,RJ224,RJ2,Lewisham And Greenwich NHS Trust,University Hospital Lewisham,E09000006,Bromley,Bromley and Chislehurst,NHS South East London CCG,London,E54000030,Our Healthier South East London
E02000138,Beckenham East & Kelsey Park,-0.003294290439794,51.4077739685528,BR2 0AA,E40000003,E12000007,E14000551,E30000234,E38000244,RJ224,RJ2,Lewisham And Greenwich NHS Trust,University Hospital Lewisham,E09000006,Bromley,Beckenham,NHS South East London CCG,London,E54000030,Our Healthier South East London
E02000139,Clock House & Cator Park,-0.032358242301011,51.4076808534972,BR3 1AA,E40000003,E12000007,E14000788,E30000234,E38000244,RJ224,RJ2,Lewisham And Greenwich NHS Trust,University Hospital Lewisham,E09000006,Bromley,Lewisham West and Penge,NHS South East London CCG,London,E54000030,Our Healthier South East London
E02000140,St Mary Cray North,0.110959685475802,51.3970846872379,BR5 2BF,E40000003,E12000007,E14000604,E30000234,E38000244,RN7QM,RN7,Dartford And Gravesham NHS Trust,Queen Mary's Hospital Sidcup,E09000006,Bromley,Bromley and Chislehurst,NHS South East London CCG,London,E54000030,Our Healthier South East London
E02000141,Anerley South,-0.052309817888161,51.4014043467279,BR3 4EH,E40000003,E12000007,E14000788,E30000234,E38000244,RJ611,RJ6,Croydon Health Services NHS Trust,Croydon University Hospital,E09000006,Bromley,Lewisham West and Penge,NHS South East London CCG,London,E54000030,Our Healthier South East London
E02000142,Widmore,0.038352339828533,51.399161770735,BR1 2BL,E40000003,E12000007,E14000604,E30000234,E38000244,RJZ30,RJZ,King's College Hospital NHS Foundation Trust,Princess Royal University Hospital,E09000006,Bromley,Bromley and Chislehurst,NHS South East London CCG,London,E54000030,Our Healthier South East London
E02000144,Bromley South,0.015440546048169,51.4015451546039,BR1 1AA,E40000003,E12000007,E14000604,E30000234,E38000244,RJZ30,RJZ,King's College Hospital NHS Foundation Trust,Princess Royal University Hospital,E09000006,Bromley,Bromley and Chislehurst,NHS South East London CCG,London,E54000030,Our Healthier South East London
E02000145,St Mary Cray East,0.113578378784824,51.3996273245065,BR5 3AB,E40000003,E12000007,E14000872,E30000234,E38000244,RN7QM,RN7,Dartford And Gravesham NHS Trust,Queen Mary's Hospital Sidcup,E09000006,Bromley,Orpington,NHS South East London CCG,London,E54000030,Our Healthier South East London
E02000146,Bickley West,0.043119638421231,51.399357584254,BR1 2BU,E40000003,E12000007,E14000604,E30000234,E38000244,RJZ30,RJZ,King's College Hospital NHS Foundation Trust,Princess Royal University Hospital,E09000006,Bromley,Bromley and Chislehurst,NHS South East London CCG,London,E54000030,Our Healthier South East London
E02000147,Langley Park,-0.003238091772255,51.4001561058779,BR2 0AF,E40000003,E12000007,E14000551,E30000234,E38000244,RJ224,RJ2,Lewisham And Greenwich NHS Trust,University Hospital Lewisham,E09000006,Bromley,Beckenham,NHS South East London CCG,London,E54000030,Our Healthier South East London
E02000148,Bickley East,0.045812378987177,51.3917119032541,BR1 2BG,E40000003,E12000007,E14000604,E30000234,E38000244,RJZ30,RJZ,King's College Hospital NHS Foundation Trust,Princess Royal University Hospital,E09000006,Bromley,Bromley and Chislehurst,NHS South East London CCG,London,E54000030,Our Healthier South East London
E02000149,St Mary Cray South,0.093303989153568,51.3910709550548,BR5 1GU,E40000003,E12000007,E14000604,E30000234,E38000244,RJZ70,RJZ,King's College Hospital NHS Foundation Trust,Orpington Hospital,E09000006,Bromley,Bromley and Chislehurst,NHS South East London CCG,London,E54000030,Our Healthier South East London
E02000150,Eden Park & Bethlem,-0.021030033817278,51.3919686635758,BR3 3AL,E40000003,E12000007,E14000551,E30000234,E38000244,RJ224,RJ2,Lewisham And Greenwich NHS Trust,University Hospital Lewisham,E09000006,Bromley,Beckenham,NHS South East London CCG,London,E54000030,Our Healthier South East London
E02000151,Petts Wood,0.071339154022104,51.3884938331614,BR5 1AR,E40000003,E12000007,E14000872,E30000234,E38000244,RJZ30,RJZ,King's College Hospital NHS Foundation Trust,Princess Royal University Hospital,E09000006,Bromley,Orpington,NHS South East London CCG,London,E54000030,Our Healthier South East London
E02000152,Bromley Common,0.056812400201941,51.3898737679797,BR2 8AA,E40000003,E12000007,E14000551,E30000234,E38000244,RJZ30,RJZ,King's College Hospital NHS Foundation Trust,Princess Royal University Hospital,E09000006,Bromley,Beckenham,NHS South East London CCG,London,E54000030,Our Healthier South East London
E02000153,Hayes North,0.0058641744739,51.3811163601654,BR2 7AY,E40000003,E12000007,E14000551,E30000234,E38000244,RJZ30,RJZ,King's College Hospital NHS Foundation Trust,Princess Royal University Hospital,E09000006,Bromley,Beckenham,NHS South East London CCG,London,E54000030,Our Healthier South East London
E02000154,Orpington West,0.099163880022878,51.3768295500565,BR5 1BS,E40000003,E12000007,E14000872,E30000234,E38000244,RJZ70,RJZ,King's College Hospital NHS Foundation Trust,Orpington Hospital,E09000006,Bromley,Orpington,NHS South East London CCG,London,E54000030,Our Healthier South East London
E02000155,Orpington East,0.114602480001352,51.3866054321548,BR5 4AP,E40000003,E12000007,E14000872,E30000234,E38000244,RJZ70,RJZ,King's College Hospital NHS Foundation Trust,Orpington Hospital,E09000006,Bromley,Orpington,NHS South East London CCG,London,E54000030,Our Healthier South East London
E02000156,West Wickham,-0.02188013156109,51.3852476017546,BR3 3BG,E40000003,E12000007,E14000551,E30000234,E38000244,RJ224,RJ2,Lewisham And Greenwich NHS Trust,University Hospital Lewisham,E09000006,Bromley,Beckenham,NHS South East London CCG,London,E54000030,Our Healthier South East London
E02000157,Crofton,0.077420858879448,51.3751937741435,BR5 1FA,E40000003,E12000007,E14000872,E30000234,E38000244,RJZ30,RJZ,King's College Hospital NHS Foundation Trust,Princess Royal University Hospital,E09000006,Bromley,Orpington,NHS South East London CCG,London,E54000030,Our Healthier South East London
E02000158,Goddington,0.120010555258315,51.3745654373293,BR5 4FG,E40000003,E12000007,E14000872,E30000234,E38000244,RJZ70,RJZ,King's College Hospital NHS Foundation Trust,Orpington Hospital,E09000006,Bromley,Orpington,NHS South East London CCG,London,E54000030,Our Healthier South East London
E02000159,Keston,0.034066986527924,51.3504510558709,BR2 6AE,E40000003,E12000007,E14000551,E30000234,E38000244,RJZ30,RJZ,King's College Hospital NHS Foundation Trust,Princess Royal University Hospital,E09000006,Bromley,Beckenham,NHS South East London CCG,London,E54000030,Our Healthier South East London
E02000160,Hayes South & Coney Hall,0.024071136006646,51.3631599900581,BR2 6AJ,E40000003,E12000007,E14000551,E30000234,E38000244,RJZ30,RJZ,King's College Hospital NHS Foundation Trust,Princess Royal University Hospital,E09000006,Bromley,Beckenham,NHS South East London CCG,London,E54000030,Our Healthier South East London
E02000161,Orpington South,0.093783998628767,51.3681938401334,BR6 0SN,E40000003,E12000007,E14000872,E30000234,E38000244,RJZ70,RJZ,King's College Hospital NHS Foundation Trust,Orpington Hospital,E09000006,Bromley,Orpington,NHS South East London CCG,London,E54000030,Our Healthier South East London
E02000162,Farnborough,0.086650807704432,51.3506320574244,BR6 6BN,E40000003,E12000007,E14000872,E30000234,E38000244,RJZ70,RJZ,King's College Hospital NHS Foundation Trust,Orpington Hospital,E09000006,Bromley,Orpington,NHS South East London CCG,London,E54000030,Our Healthier South East London
E02000163,Chelsfield & Green Street Green,0.136818207363402,51.3692329316099,BR5 4HB,E40000003,E12000007,E14000872,E30000234,E38000244,RJZ70,RJZ,King's College Hospital NHS Foundation Trust,Orpington Hospital,E09000006,Bromley,Orpington,NHS South East London CCG,London,E54000030,Our Healthier South East London
E02000165,Biggin Hill West,0.009088795391635,51.3191630449661,CR3 9PP,E40000003,E12000007,E14000872,E30000234,E38000244,RJZ30,RJZ,King's College Hospital NHS Foundation Trust,Princess Royal University Hospital,E09000006,Bromley,Orpington,NHS South East London CCG,London,E54000030,Our Healthier South East London
E02000166,Highgate West,-0.1408919716712,51.5631120180137,N19 5BP,E40000003,E12000007,E14000750,E30000234,E38000240,RKEQ4,RKE,Whittington Health NHS Trust,The Whittington Hospital,E09000007,Camden,Holborn and St Pancras,NHS North Central London CCG,London,E54000028,North London Partners in Health and Care
E02000167,Hampstead Town,-0.177761005867991,51.559005112209,NW3 1AA,E40000003,E12000007,E14000727,E30000234,E38000240,RAL01,RAL,Royal Free London NHS Foundation Trust,Royal Free Hospital,E09000007,Camden,Hampstead and Kilburn,NHS North Central London CCG,London,E54000028,North London Partners in Health and Care
E02000168,Tufnell Park West,-0.138124920333383,51.5563237579843,N19 5AA,E40000003,E12000007,E14000750,E30000234,E38000240,RKEQ4,RKE,Whittington Health NHS Trust,The Whittington Hospital,E09000007,Camden,Holborn and St Pancras,NHS North Central London CCG,London,E54000028,North London Partners in Health and Care
E02000169,Frognal,-0.179566644800547,51.5560566149009,NW3 1DJ,E40000003,E12000007,E14000727,E30000234,E38000240,RAL01,RAL,Royal Free London NHS Foundation Trust,Royal Free Hospital,E09000007,Camden,Hampstead and Kilburn,NHS North Central London CCG,London,E54000028,North London Partners in Health and Care
E02000170,Fortune Green,-0.198319163124872,51.5575421605147,NW2 2BT,E40000003,E12000007,E14000727,E30000234,E38000240,RAL01,RAL,Royal Free London NHS Foundation Trust,Royal Free Hospital,E09000007,Camden,Hampstead and Kilburn,NHS North Central London CCG,London,E54000028,North London Partners in Health and Care
E02000171,Mansfield Road & Park Hill Road,-0.162822553812082,51.5509397051062,NW3 2AN,E40000003,E12000007,E14000750,E30000234,E38000240,RAL01,RAL,Royal Free London NHS Foundation Trust,Royal Free Hospital,E09000007,Camden,Holborn and St Pancras,NHS North Central London CCG,London,E54000028,North London Partners in Health and Care
E02000172,Kentish Town West,-0.141908785555976,51.5456015298235,NW1 8PD,E40000003,E12000007,E14000750,E30000234,E38000240,RKEQ4,RKE,Whittington Health NHS Trust,The Whittington Hospital,E09000007,Camden,Holborn and St Pancras,NHS North Central London CCG,London,E54000028,North London Partners in Health and Care
E02000173,Fitzjohns & Royal Free,-0.170951183633636,51.5550593519342,NW3 1NY,E40000003,E12000007,E14000727,E30000234,E38000240,RAL01,RAL,Royal Free London NHS Foundation Trust,Royal Free Hospital,E09000007,Camden,Hampstead and Kilburn,NHS North Central London CCG,London,E54000028,North London Partners in Health and Care
E02000174,Kentish Town East,-0.135529544784747,51.5545289946087,N19 5AD,E40000003,E12000007,E14000750,E30000234,E38000240,RKEQ4,RKE,Whittington Health NHS Trust,The Whittington Hospital,E09000007,Camden,Holborn and St Pancras,NHS North Central London CCG,London,E54000028,North London Partners in Health and Care
E02000175,West Hampstead,-0.184106392017536,51.5507314340294,NW3 5DY,E40000003,E12000007,E14000727,E30000234,E38000240,RAL01,RAL,Royal Free London NHS Foundation Trust,Royal Free Hospital,E09000007,Camden,Hampstead and Kilburn,NHS North Central London CCG,London,E54000028,North London Partners in Health and Care
E02000176,Belsize Park,-0.165439212169135,51.5486425577098,NW3 2EW,E40000003,E12000007,E14000727,E30000234,E38000240,RAL01,RAL,Royal Free London NHS Foundation Trust,Royal Free Hospital,E09000007,Camden,Hampstead and Kilburn,NHS North Central London CCG,London,E54000028,North London Partners in Health and Care
E02000177,Chalk Farm,-0.148248063036407,51.5429229935914,NW1 8AJ,E40000003,E12000007,E14000750,E30000234,E38000240,RAL01,RAL,Royal Free London NHS Foundation Trust,Royal Free Hospital,E09000007,Camden,Holborn and St Pancras,NHS North Central London CCG,London,E54000028,North London Partners in Health and Care
E02000178,Kilburn Grange,-0.206217359185668,51.5507568270628,NW2 3NN,E40000003,E12000007,E14000727,E30000234,E38000240,RAL01,RAL,Royal Free London NHS Foundation Trust,Royal Free Hospital,E09000007,Camden,Hampstead and Kilburn,NHS North Central London CCG,London,E54000028,North London Partners in Health and Care
E02000179,Adelaide Road,-0.162456923995573,51.5449808565442,NW3 3AA,E40000003,E12000007,E14000727,E30000234,E38000240,RAL01,RAL,Royal Free London NHS Foundation Trust,Royal Free Hospital,E09000007,Camden,Hampstead and Kilburn,NHS North Central London CCG,London,E54000028,North London Partners in Health and Care
E02000180,Camden Road South,-0.126742827356057,51.5426356127582,N7 9AB,E40000003,E12000007,E14000750,E30000234,E38000240,RRV03,RRV,University College London Hospitals NHS Foundation Trust,University College Hospital,E09000007,Camden,Holborn and St Pancras,NHS North Central London CCG,London,E54000028,North London Partners in Health and Care
E02000181,South Hampstead,-0.192173629381362,51.5422590884675,NW6 1XE,E40000003,E12000007,E14000727,E30000234,E38000240,RAL01,RAL,Royal Free London NHS Foundation Trust,Royal Free Hospital,E09000007,Camden,Hampstead and Kilburn,NHS North Central London CCG,London,E54000028,North London Partners in Health and Care
E02000182,Swiss Cottage,-0.171846041260519,51.5417372894987,NW3 3AQ,E40000003,E12000007,E14000727,E30000234,E38000240,RAL01,RAL,Royal Free London NHS Foundation Trust,Royal Free Hospital,E09000007,Camden,Hampstead and Kilburn,NHS North Central London CCG,London,E54000028,North London Partners in Health and Care
E02000183,Primrose Hill,-0.147139046963242,51.5375638285365,NW1 4DZ,E40000003,E12000007,E14000750,E30000234,E38000240,RRV03,RRV,University College London Hospitals NHS Foundation Trust,University College Hospital,E09000007,Camden,Holborn and St Pancras,NHS North Central London CCG,London,E54000028,North London Partners in Health and Care
E02000184,Camden Street & Elm Village,-0.129735832656026,51.5399855433612,N1 7XE,E40000003,E12000007,E14000750,E30000234,E38000240,RRV03,RRV,University College London Hospitals NHS Foundation Trust,University College Hospital,E09000007,Camden,Holborn and St Pancras,NHS North Central London CCG,London,E54000028,North London Partners in Health and Care
E02000185,Kilburn East,-0.193055530026099,51.5403842263218,NW6 2PJ,E40000003,E12000007,E14000727,E30000234,E38000240,RYJ01,RYJ,Imperial College Healthcare NHS Trust,St Mary's Hospital (Hq),E09000007,Camden,Hampstead and Kilburn,NHS North Central London CCG,London,E54000028,North London Partners in Health and Care
E02000186,Camden Town & Mornington Crescent,-0.139457972111003,51.5367408559099,NW1 0AA,E40000003,E12000007,E14000750,E30000234,E38000240,RRV03,RRV,University College London Hospitals NHS Foundation Trust,University College Hospital,E09000007,Camden,Holborn and St Pancras,NHS North Central London CCG,London,E54000028,North London Partners in Health and Care
E02000187,Somers Town,-0.122663067766653,51.535942775981,N1 0AS,E40000003,E12000007,E14000750,E30000234,E38000240,RRV03,RRV,University College London Hospitals NHS Foundation Trust,University College Hospital,E09000007,Camden,Holborn and St Pancras,NHS North Central London CCG,London,E54000028,North London Partners in Health and Care
E02000188,Euston,-0.135404353444786,51.5307862777021,NW1 0AF,E40000003,E12000007,E14000750,E30000234,E38000240,RRV03,RRV,University College London Hospitals NHS Foundation Trust,University College Hospital,E09000007,Camden,Holborn and St Pancras,NHS North Central London CCG,London,E54000028,North London Partners in Health and Care
E02000189,Gray's Inn Road,-0.116450029691328,51.528568070488,CM23 3WE,E40000003,E12000007,E14000750,E30000234,E38000240,R1HM0,R1H,Barts Health NHS Trust,St Bartholomew's Hospital,E09000007,Camden,Holborn and St Pancras,NHS North Central London CCG,London,E54000028,North London Partners in Health and Care
E02000190,Bloomsbury East,-0.128355114395754,51.5279492443963,NW1 2AA,E40000003,E12000007,E14000750,E30000234,E38000240,RRV03,RRV,University College London Hospitals NHS Foundation Trust,University College Hospital,E09000007,Camden,Holborn and St Pancras,NHS North Central London CCG,London,E54000028,North London Partners in Health and Care
E02000191,Fitzrovia East & Bloomsbury West,-0.131674196348404,51.5268151029799,NW1 2AE,E40000003,E12000007,E14000750,E30000234,E38000240,RRV03,RRV,University College London Hospitals NHS Foundation Trust,University College Hospital,E09000007,Camden,Holborn and St Pancras,NHS North Central London CCG,London,E54000028,North London Partners in Health and Care
E02000192,Hatton Garden & Theobalds Road,-0.106570749417117,51.5213587205616,EC1M 3AB,E40000003,E12000007,E14000750,E30000234,E38000240,R1HM0,R1H,Barts Health NHS Trust,St Bartholomew's Hospital,E09000007,Camden,Holborn and St Pancras,NHS North Central London CCG,London,E54000028,North London Partners in Health and Care
E02000193,"Holborn, St Giles & Bloomsbury South",-0.111016947085581,51.5184178247729,EC1N 2LR,E40000003,E12000007,E14000750,E30000234,E38000240,R1HM0,R1H,Barts Health NHS Trust,St Bartholomew's Hospital,E09000007,Camden,Holborn and St Pancras,NHS North Central London CCG,London,E54000028,North London Partners in Health and Care
E02000194,Crystal Palace Triangle,-0.08329292375881,51.418929980063,SE19 1AD,E40000003,E12000007,E14000655,E30000234,E38000245,RJ611,RJ6,Croydon Health Services NHS Trust,Croydon University Hospital,E09000008,Croydon,Croydon North,NHS South West London CCG,London,E54000031,South West London Health and Care Partnership
E02000195,Upper Norwood,-0.106355032089273,51.4083160226563,CR4 8BB,E40000003,E12000007,E14000655,E30000234,E38000245,RJ611,RJ6,Croydon Health Services NHS Trust,Croydon University Hospital,E09000008,Croydon,Croydon North,NHS South West London CCG,London,E54000031,South West London Health and Care Partnership
E02000196,Norbury East,-0.119250667578104,51.4094230381297,CR4 6BE,E40000003,E12000007,E14000655,E30000234,E38000245,RJ611,RJ6,Croydon Health Services NHS Trust,Croydon University Hospital,E09000008,Croydon,Croydon North,NHS South West London CCG,London,E54000031,South West London Health and Care Partnership
E02000197,Norbury West,-0.123966431091277,51.399606547084,CR4 6ET,E40000003,E12000007,E14000655,E30000234,E38000245,RJ611,RJ6,Croydon Health Services NHS Trust,Croydon University Hospital,E09000008,Croydon,Croydon North,NHS South West London CCG,London,E54000031,South West London Health and Care Partnership
E02000198,Thornton Heath North West,-0.103741538703188,51.4019789459904,CR4 8AA,E40000003,E12000007,E14000655,E30000234,E38000245,RJ611,RJ6,Croydon Health Services NHS Trust,Croydon University Hospital,E09000008,Croydon,Croydon North,NHS South West London CCG,London,E54000031,South West London Health and Care Partnership
E02000199,Thornton Heath North East,-0.096520568272674,51.4027611082145,CR4 8JQ,E40000003,E12000007,E14000655,E30000234,E38000245,RJ611,RJ6,Croydon Health Services NHS Trust,Croydon University Hospital,E09000008,Croydon,Croydon North,NHS South West London CCG,London,E54000031,South West London Health and Care Partnership
E02000200,South Norwood Hill,-0.080312420799081,51.4104280122899,SE19 2DA,E40000003,E12000007,E14000655,E30000234,E38000245,RJ611,RJ6,Croydon Health Services NHS Trust,Croydon University Hospital,E09000008,Croydon,Croydon North,NHS South West London CCG,London,E54000031,South West London Health and Care Partnership
E02000201,South Norwood Central,-0.076539386332293,51.4050784075764,SE25 4AF,E40000003,E12000007,E14000655,E30000234,E38000245,RJ611,RJ6,Croydon Health Services NHS Trust,Croydon University Hospital,E09000008,Croydon,Croydon North,NHS South West London CCG,London,E54000031,South West London Health and Care Partnership
E02000202,Thornton Heath West,-0.115457278542613,51.3967722679941,CR4 6YL,E40000003,E12000007,E14000655,E30000234,E38000245,RJ611,RJ6,Croydon Health Services NHS Trust,Croydon University Hospital,E09000008,Croydon,Croydon North,NHS South West London CCG,London,E54000031,South West London Health and Care Partnership
E02000203,Thornton Heath Central,-0.10056115079984,51.3909563778897,CR0 2NR,E40000003,E12000007,E14000655,E30000234,E38000245,RJ611,RJ6,Croydon Health Services NHS Trust,Croydon University Hospital,E09000008,Croydon,Croydon North,NHS South West London CCG,London,E54000031,South West London Health and Care Partnership
E02000204,West Thornton North,-0.122373180054818,51.3911277972849,CR0 3BB,E40000003,E12000007,E14000655,E30000234,E38000245,RJ611,RJ6,Croydon Health Services NHS Trust,Croydon University Hospital,E09000008,Croydon,Croydon North,NHS South West London CCG,London,E54000031,South West London Health and Care Partnership
E02000206,Selhurst North,-0.09126159318499,51.3819743318455,CR0 2BA,E40000003,E12000007,E14000655,E30000234,E38000245,RJ611,RJ6,Croydon Health Services NHS Trust,Croydon University Hospital,E09000008,Croydon,Croydon North,NHS South West London CCG,London,E54000031,South West London Health and Care Partnership
E02000207,Woodside & Ashburton,-0.078058673281859,51.3911378365382,CR0 6BW,E40000003,E12000007,E14000654,E30000234,E38000245,RJ611,RJ6,Croydon Health Services NHS Trust,Croydon University Hospital,E09000008,Croydon,Croydon Central,NHS South West London CCG,London,E54000031,South West London Health and Care Partnership
E02000208,University Hospital & Queen's Road,-0.109169414249633,51.3850702962363,CR0 2FU,E40000003,E12000007,E14000655,E30000234,E38000245,RJ611,RJ6,Croydon Health Services NHS Trust,Croydon University Hospital,E09000008,Croydon,Croydon North,NHS South West London CCG,London,E54000031,South West London Health and Care Partnership
E02000209,West Thornton South & Ampere Way,-0.129493836870589,51.3892271811759,CR0 3AA,E40000003,E12000007,E14000655,E30000234,E38000245,RJ611,RJ6,Croydon Health Services NHS Trust,Croydon University Hospital,E09000008,Croydon,Croydon North,NHS South West London CCG,London,E54000031,South West London Health and Care Partnership
E02000210,Addiscombe North,-0.081246542491666,51.3884653636113,CR0 6BY,E40000003,E12000007,E14000654,E30000234,E38000245,RJ611,RJ6,Croydon Health Services NHS Trust,Croydon University Hospital,E09000008,Croydon,Croydon Central,NHS South West London CCG,London,E54000031,South West London Health and Care Partnership
E02000211,Monks Orchard,-0.03995238500669,51.3840852152357,CR0 7AH,E40000003,E12000007,E14000654,E30000234,E38000245,RJ611,RJ6,Croydon Health Services NHS Trust,Croydon University Hospital,E09000008,Croydon,Croydon Central,NHS South West London CCG,London,E54000031,South West London Health and Care Partnership
E02000212,Broad Green & Waddon Marsh,-0.107468726766797,51.3813558304584,CR0 0XL,E40000003,E12000007,E14000655,E30000234,E38000245,RJ611,RJ6,Croydon Health Services NHS Trust,Croydon University Hospital,E09000008,Croydon,Croydon North,NHS South West London CCG,London,E54000031,South West London Health and Care Partnership
E02000213,Selhurst South & West Croydon,-0.099574983142074,51.3752119829649,CR0 0XB,E40000003,E12000007,E14000654,E30000234,E38000245,RJ611,RJ6,Croydon Health Services NHS Trust,Croydon University Hospital,E09000008,Croydon,Croydon Central,NHS South West London CCG,London,E54000031,South West London Health and Care Partnership
E02000214,Addiscombe East,-0.068177672609814,51.3837719447867,CR0 6NG,E40000003,E12000007,E14000654,E30000234,E38000245,RJ611,RJ6,Croydon Health Services NHS Trust,Croydon University Hospital,E09000008,Croydon,Croydon Central,NHS South West London CCG,London,E54000031,South West London Health and Care Partnership
E02000215,Addiscombe West,-0.091837924185769,51.3757157069564,CR0 0WZ,E40000003,E12000007,E14000654,E30000234,E38000245,RJ611,RJ6,Croydon Health Services NHS Trust,Croydon University Hospital,E09000008,Croydon,Croydon Central,NHS South West London CCG,London,E54000031,South West London Health and Care Partnership
E02000216,Park Hill & Lloyd Park,-0.084822435546125,51.3685596989098,CR0 5AZ,E40000003,E12000007,E14000654,E30000234,E38000245,RJ611,RJ6,Croydon Health Services NHS Trust,Croydon University Hospital,E09000008,Croydon,Croydon Central,NHS South West London CCG,London,E54000031,South West London Health and Care Partnership
E02000217,Croydon Minster & Waddon North,-0.10258892381308,51.3669514062384,CR0 1AD,E40000003,E12000007,E14000656,E30000234,E38000245,RJ611,RJ6,Croydon Health Services NHS Trust,Croydon University Hospital,E09000008,Croydon,Croydon South,NHS South West London CCG,London,E54000031,South West London Health and Care Partnership
E02000218,Shirley East,-0.027277361096462,51.3787109765867,BR3 3BZ,E40000003,E12000007,E14000654,E30000234,E38000245,RJ224,RJ2,Lewisham And Greenwich NHS Trust,University Hospital Lewisham,E09000008,Croydon,Croydon Central,NHS South West London CCG,London,E54000031,South West London Health and Care Partnership
E02000219,Shirley West,-0.045328057204274,51.3699034473446,CR0 5AA,E40000003,E12000007,E14000654,E30000234,E38000245,RJ611,RJ6,Croydon Health Services NHS Trust,Croydon University Hospital,E09000008,Croydon,Croydon Central,NHS South West London CCG,London,E54000031,South West London Health and Care Partnership
E02000220,Central Croydon,-0.098963790256099,51.3785204006988,CR0 0XF,E40000003,E12000007,E14000654,E30000234,E38000245,RJ611,RJ6,Croydon Health Services NHS Trust,Croydon University Hospital,E09000008,Croydon,Croydon Central,NHS South West London CCG,London,E54000031,South West London Health and Care Partnership
E02000221,Waddon South,-0.117713125254734,51.3565209112479,CR0 0XZ,E40000003,E12000007,E14000656,E30000234,E38000245,RJ611,RJ6,Croydon Health Services NHS Trust,Croydon University Hospital,E09000008,Croydon,Croydon South,NHS South West London CCG,London,E54000031,South West London Health and Care Partnership
E02000222,Croham,-0.079981769995092,51.3637231258285,CR0 5RA,E40000003,E12000007,E14000656,E30000234,E38000245,RJ611,RJ6,Croydon Health Services NHS Trust,Croydon University Hospital,E09000008,Croydon,Croydon South,NHS South West London CCG,London,E54000031,South West London Health and Care Partnership
E02000223,New Addington North,-0.018483434763408,51.3530771485528,CR0 0EN,E40000003,E12000007,E14000654,E30000234,E38000245,RJZ30,RJZ,King's College Hospital NHS Foundation Trust,Princess Royal University Hospital,E09000008,Croydon,Croydon Central,NHS South West London CCG,London,E54000031,South West London Health and Care Partnership
E02000224,Purley North,-0.103382970317445,51.3466764064131,CR2 0AY,E40000003,E12000007,E14000656,E30000234,E38000245,RJ611,RJ6,Croydon Health Services NHS Trust,Croydon University Hospital,E09000008,Croydon,Croydon South,NHS South West London CCG,London,E54000031,South West London Health and Care Partnership
E02000225,New Addington Central,-0.015506325065525,51.3398703422354,CR0 0DB,E40000003,E12000007,E14000654,E30000234,E38000245,RJZ30,RJZ,King's College Hospital NHS Foundation Trust,Princess Royal University Hospital,E09000008,Croydon,Croydon Central,NHS South West London CCG,London,E54000031,South West London Health and Care Partnership
E02000226,Selsdon,-0.063559503605518,51.3603770897055,CR0 5RE,E40000003,E12000007,E14000656,E30000234,E38000245,RJ611,RJ6,Croydon Health Services NHS Trust,Croydon University Hospital,E09000008,Croydon,Croydon South,NHS South West London CCG,London,E54000031,South West London Health and Care Partnership
E02000227,Forestdale,-0.011828979232468,51.3342506886308,CR0 0JS,E40000003,E12000007,E14000654,E30000234,E38000245,RJZ30,RJZ,King's College Hospital NHS Foundation Trust,Princess Royal University Hospital,E09000008,Croydon,Croydon Central,NHS South West London CCG,London,E54000031,South West London Health and Care Partnership
E02000228,Sanderstead,-0.089545351282376,51.3479262621877,CR2 0AA,E40000003,E12000007,E14000656,E30000234,E38000245,RJ611,RJ6,Croydon Health Services NHS Trust,Croydon University Hospital,E09000008,Croydon,Croydon South,NHS South West London CCG,London,E54000031,South West London Health and Care Partnership
E02000229,New Addington South,-0.005032471461944,51.3403404798975,CR0 0AA,E40000003,E12000007,E14000654,E30000234,E38000245,RJZ30,RJZ,King's College Hospital NHS Foundation Trust,Princess Royal University Hospital,E09000008,Croydon,Croydon Central,NHS South West London CCG,London,E54000031,South West London Health and Care Partnership
E02000230,Purley Central,-0.098019557282876,51.3433789990401,CR2 0QS,E40000003,E12000007,E14000656,E30000234,E38000245,RJ611,RJ6,Croydon Health Services NHS Trust,Croydon University Hospital,E09000008,Croydon,Croydon South,NHS South West London CCG,London,E54000031,South West London Health and Care Partnership
E02000231,Woodcote,-0.125027903673178,51.3384723953439,CR2 1XA,E40000003,E12000007,E14000656,E30000234,E38000245,RJ611,RJ6,Croydon Health Services NHS Trust,Croydon University Hospital,E09000008,Croydon,Croydon South,NHS South West London CCG,London,E54000031,South West London Health and Care Partnership
E02000232,Selsdon Park & Hamsey Green,-0.065955056532012,51.3417027484298,CR2 8AY,E40000003,E12000007,E14000656,E30000234,E38000245,RJ611,RJ6,Croydon Health Services NHS Trust,Croydon University Hospital,E09000008,Croydon,Croydon South,NHS South West London CCG,London,E54000031,South West London Health and Care Partnership
E02000233,Kenley North,-0.102442312670655,51.3291160805798,CR2 1BD,E40000003,E12000007,E14000656,E30000234,E38000245,RJ611,RJ6,Croydon Health Services NHS Trust,Croydon University Hospital,E09000008,Croydon,Croydon South,NHS South West London CCG,London,E54000031,South West London Health and Care Partnership
E02000234,Coulsdon,-0.116824174893862,51.3284486193339,CR2 2HG,E40000003,E12000007,E14000656,E30000234,E38000245,RJ611,RJ6,Croydon Health Services NHS Trust,Croydon University Hospital,E09000008,Croydon,Croydon South,NHS South West London CCG,London,E54000031,South West London Health and Care Partnership
E02000235,Kenley South,-0.095232676785564,51.3298983649406,CR2 1DN,E40000003,E12000007,E14000656,E30000234,E38000245,RJ611,RJ6,Croydon Health Services NHS Trust,Croydon University Hospital,E09000008,Croydon,Croydon South,NHS South West London CCG,London,E54000031,South West London Health and Care Partnership
E02000236,Woodmansterne,-0.136018909050162,51.3152657742827,CR3 1AA,E40000003,E12000007,E14000656,E30000234,E38000245,RJ611,RJ6,Croydon Health Services NHS Trust,Croydon University Hospital,E09000008,Croydon,Croydon South,NHS South West London CCG,London,E54000031,South West London Health and Care Partnership
E02000237,Old Coulsdon,-0.114507989184035,51.3149217702726,CR2 4BY,E40000003,E12000007,E14000656,E30000234,E38000245,RJ611,RJ6,Croydon Health Services NHS Trust,Croydon University Hospital,E09000008,Croydon,Croydon South,NHS South West London CCG,London,E54000031,South West London Health and Care Partnership
E02000238,Whitton Avenue West,-0.361294034447601,51.5566478003443,UB5 4FD,E40000003,E12000007,E14000675,E30000266,E38000048,R1K03,R1K,London North West University Healthcare NHS Trust,St Marks Hospital,E09000009,Ealing,Ealing North,NHS Ealing CCG,Slough and Heathrow,E54000027,North West London Health and Care Partnership
E02000239,Horsenden,-0.312862652658263,51.547778750217,HA0 1AL,E40000003,E12000007,E14000675,E30000234,E38000048,R1K01,R1K,London North West University Healthcare NHS Trust,Northwick Park Hospital,E09000009,Ealing,Ealing North,NHS Ealing CCG,London,E54000027,North West London Health and Care Partnership
E02000240,Northolt West,-0.371571241765688,51.5508198747999,UB5 4AD,E40000003,E12000007,E14000675,E30000266,E38000048,R1K04,R1K,London North West University Healthcare NHS Trust,Ealing Hospital,E09000009,Ealing,Ealing North,NHS Ealing CCG,Slough and Heathrow,E54000027,North West London Health and Care Partnership
E02000241,Northolt East,-0.368419051440227,51.5482133032483,UB5 4AA,E40000003,E12000007,E14000675,E30000266,E38000048,R1K04,R1K,London North West University Healthcare NHS Trust,Ealing Hospital,E09000009,Ealing,Ealing North,NHS Ealing CCG,Slough and Heathrow,E54000027,North West London Health and Care Partnership
E02000242,Bilton Road,-0.305671082345997,51.5398697338676,HA0 1AZ,E40000003,E12000007,E14000675,E30000266,E38000048,R1K02,R1K,London North West University Healthcare NHS Trust,Central Middlesex Hospital,E09000009,Ealing,Ealing North,NHS Ealing CCG,Slough and Heathrow,E54000027,North West London Health and Care Partnership
E02000243,Greenford North,-0.344068626889226,51.5423600472312,UB6 0AA,E40000003,E12000007,E14000675,E30000266,E38000048,R1K04,R1K,London North West University Healthcare NHS Trust,Ealing Hospital,E09000009,Ealing,Ealing North,NHS Ealing CCG,Slough and Heathrow,E54000027,North West London Health and Care Partnership
E02000244,Perivale,-0.314825275777356,51.5376004996442,UB6 7AB,E40000003,E12000007,E14000675,E30000266,E38000048,R1K03,R1K,London North West University Healthcare NHS Trust,St Marks Hospital,E09000009,Ealing,Ealing North,NHS Ealing CCG,Slough and Heathrow,E54000027,North West London Health and Care Partnership
E02000245,Northolt South,-0.379111574857181,51.5427953014551,UB5 5AF,E40000003,E12000007,E14000675,E30000266,E38000048,R1K04,R1K,London North West University Healthcare NHS Trust,Ealing Hospital,E09000009,Ealing,Ealing North,NHS Ealing CCG,Slough and Heathrow,E54000027,North West London Health and Care Partnership
E02000246,Kingshill Avenue,-0.386432744605447,51.5392633438894,UB5 5AS,E40000003,E12000007,E14000675,E30000266,E38000048,R1K04,R1K,London North West University Healthcare NHS Trust,Ealing Hospital,E09000009,Ealing,Ealing North,NHS Ealing CCG,Slough and Heathrow,E54000027,North West London Health and Care Partnership
E02000247,Greenford West,-0.374862506881252,51.5317120463325,UB1 2FJ,E40000003,E12000007,E14000675,E30000266,E38000048,R1K04,R1K,London North West University Healthcare NHS Trust,Ealing Hospital,E09000009,Ealing,Ealing North,NHS Ealing CCG,Slough and Heathrow,E54000027,North West London Health and Care Partnership
E02000248,Hanger Hill East,-0.284116777380884,51.5378481517678,HA0 1WE,E40000003,E12000007,E14000674,E30000234,E38000048,R1K02,R1K,London North West University Healthcare NHS Trust,Central Middlesex Hospital,E09000009,Ealing,Ealing Central and Acton,NHS Ealing CCG,London,E54000027,North West London Health and Care Partnership
E02000249,Greenford South,-0.355749820156782,51.5179571892702,UB1 3AA,E40000003,E12000007,E14000676,E30000266,E38000048,R1K04,R1K,London North West University Healthcare NHS Trust,Ealing Hospital,E09000009,Ealing,"Ealing, Southall",NHS Ealing CCG,Slough and Heathrow,E54000027,North West London Health and Care Partnership
E02000250,Pitshanger,-0.318753660827953,51.5280439197149,W13 8DJ,E40000003,E12000007,E14000675,E30000234,E38000048,R1K04,R1K,London North West University Healthcare NHS Trust,Ealing Hospital,E09000009,Ealing,Ealing North,NHS Ealing CCG,London,E54000027,North West London Health and Care Partnership
E02000251,Greenford Ravenor Park,-0.365276809043123,51.5264172866981,UB1 2ES,E40000003,E12000007,E14000676,E30000266,E38000048,R1K04,R1K,London North West University Healthcare NHS Trust,Ealing Hospital,E09000009,Ealing,"Ealing, Southall",NHS Ealing CCG,Slough and Heathrow,E54000027,North West London Health and Care Partnership
E02000252,North Acton,-0.26462429427676,51.5195765296481,NW10 0NZ,E40000003,E12000007,E14000674,E30000234,E38000048,R1K02,R1K,London North West University Healthcare NHS Trust,Central Middlesex Hospital,E09000009,Ealing,Ealing Central and Acton,NHS Ealing CCG,London,E54000027,North West London Health and Care Partnership
E02000253,Cuckoo Park,-0.329550227836132,51.5284768686086,W13 0AA,E40000003,E12000007,E14000675,E30000234,E38000048,R1K04,R1K,London North West University Healthcare NHS Trust,Ealing Hospital,E09000009,Ealing,Ealing North,NHS Ealing CCG,London,E54000027,North West London Health and Care Partnership
E02000254,Southall North,-0.379341573817882,51.5168287430863,UB1 2AR,E40000003,E12000007,E14000676,E30000266,E38000048,R1K04,R1K,London North West University Healthcare NHS Trust,Ealing Hospital,E09000009,Ealing,"Ealing, Southall",NHS Ealing CCG,Slough and Heathrow,E54000027,North West London Health and Care Partnership
E02000255,Drayton Green & Cleveland,-0.321608740892631,51.5139217076936,W10 4WL,E40000003,E12000007,E14000675,E30000234,E38000048,R1K04,R1K,London North West University Healthcare NHS Trust,Ealing Hospital,E09000009,Ealing,Ealing North,NHS Ealing CCG,London,E54000027,North West London Health and Care Partnership
E02000256,Ealing Broadway West,-0.32072399948835,51.5152489228143,W13 8AA,E40000003,E12000007,E14000674,E30000234,E38000048,R1K04,R1K,London North West University Healthcare NHS Trust,Ealing Hospital,E09000009,Ealing,Ealing Central and Acton,NHS Ealing CCG,London,E54000027,North West London Health and Care Partnership
E02000257,Ealing Broadway East,-0.280602933661151,51.5189844235015,W3 0DT,E40000003,E12000007,E14000674,E30000234,E38000048,R1K02,R1K,London North West University Healthcare NHS Trust,Central Middlesex Hospital,E09000009,Ealing,Ealing Central and Acton,NHS Ealing CCG,London,E54000027,North West London Health and Care Partnership
E02000258,Acton Noel Road & Lunton Road,-0.268805105900746,51.5210770860725,W3 0AD,E40000003,E12000007,E14000674,E30000234,E38000048,R1K02,R1K,London North West University Healthcare NHS Trust,Central Middlesex Hospital,E09000009,Ealing,Ealing Central and Acton,NHS Ealing CCG,London,E54000027,North West London Health and Care Partnership
E02000259,Brent Valley,-0.335450232407087,51.514946195609,W7 1EH,E40000003,E12000007,E14000675,E30000234,E38000048,R1K04,R1K,London North West University Healthcare NHS Trust,Ealing Hospital,E09000009,Ealing,Ealing North,NHS Ealing CCG,London,E54000027,North West London Health and Care Partnership
E02000260,Southall Park,-0.37628467936848,51.5111932241078,UB1 1JR,E40000003,E12000007,E14000676,E30000266,E38000048,R1K04,R1K,London North West University Healthcare NHS Trust,Ealing Hospital,E09000009,Ealing,"Ealing, Southall",NHS Ealing CCG,Slough and Heathrow,E54000027,North West London Health and Care Partnership
E02000261,East Acton,-0.249913123515814,51.5043944141092,W12 9DG,E40000003,E12000007,E14000726,E30000234,E38000048,RYJ03,RYJ,Imperial College Healthcare NHS Trust,Hammersmith Hospital,E09000009,Ealing,Hammersmith,NHS Ealing CCG,London,E54000027,North West London Health and Care Partnership
E02000262,Acton Central,-0.26893139928693,51.5082465872485,W3 6AH,E40000003,E12000007,E14000674,E30000234,E38000048,R1K02,R1K,London North West University Healthcare NHS Trust,Central Middlesex Hospital,E09000009,Ealing,Ealing Central and Acton,NHS Ealing CCG,London,E54000027,North West London Health and Care Partnership
E02000263,Southall West,-0.378462257505637,51.5075005158935,UB1 1AA,E40000003,E12000007,E14000676,E30000266,E38000048,R1K04,R1K,London North West University Healthcare NHS Trust,Ealing Hospital,E09000009,Ealing,"Ealing, Southall",NHS Ealing CCG,Slough and Heathrow,E54000027,North West London Health and Care Partnership
E02000264,Ealing Common & Twyford Ave,-0.277039665046434,51.5076105550558,W3 8EB,E40000003,E12000007,E14000674,E30000234,E38000048,R1K02,R1K,London North West University Healthcare NHS Trust,Central Middlesex Hospital,E09000009,Ealing,Ealing Central and Acton,NHS Ealing CCG,London,E54000027,North West London Health and Care Partnership
E02000265,West Ealing,-0.319770039899847,51.511800149737,W13 0BF,E40000003,E12000007,E14000676,E30000234,E38000048,R1K04,R1K,London North West University Healthcare NHS Trust,Ealing Hospital,E09000009,Ealing,"Ealing, Southall",NHS Ealing CCG,London,E54000027,North West London Health and Care Partnership
E02000266,Norwood Green North & Windmill Park,-0.366158348811042,51.508237965959,UB1 3AN,E40000003,E12000007,E14000676,E30000266,E38000048,R1K04,R1K,London North West University Healthcare NHS Trust,Ealing Hospital,E09000009,Ealing,"Ealing, Southall",NHS Ealing CCG,Slough and Heathrow,E54000027,North West London Health and Care Partnership
E02000267,Hanwell,-0.339995003844339,51.5080774421322,W13 8ST,E40000003,E12000007,E14000676,E30000234,E38000048,R1K04,R1K,London North West University Healthcare NHS Trust,Ealing Hospital,E09000009,Ealing,"Ealing, Southall",NHS Ealing CCG,London,E54000027,North West London Health and Care Partnership
E02000268,St Mary's,-0.309235600579066,51.5059566273762,W13 9NX,E40000003,E12000007,E14000674,E30000234,E38000048,RQM91,RQM,Chelsea And Westminster Hospital NHS Foundation Trust,West Middlesex University Hospital,E09000009,Ealing,Ealing Central and Acton,NHS Ealing CCG,London,E54000027,North West London Health and Care Partnership
E02000269,Northfields,-0.320000474983334,51.5059313751784,W13 9DW,E40000003,E12000007,E14000674,E30000234,E38000048,R1K04,R1K,London North West University Healthcare NHS Trust,Ealing Hospital,E09000009,Ealing,Ealing Central and Acton,NHS Ealing CCG,London,E54000027,North West London Health and Care Partnership
E02000270,South Acton,-0.276962287599871,51.5004963132335,W2 1GF,E40000003,E12000007,E14000674,E30000234,E38000048,R1K02,R1K,London North West University Healthcare NHS Trust,Central Middlesex Hospital,E09000009,Ealing,Ealing Central and Acton,NHS Ealing CCG,London,E54000027,North West London Health and Care Partnership
E02000271,Bedford Park,-0.256072984685493,51.5053404249559,W3 0BD,E40000003,E12000007,E14000674,E30000234,E38000048,RYJ03,RYJ,Imperial College Healthcare NHS Trust,Hammersmith Hospital,E09000009,Ealing,Ealing Central and Acton,NHS Ealing CCG,London,E54000027,North West London Health and Care Partnership
E02000272,Elthorne Park,-0.341647541064938,51.5022557387458,UB2 4RY,E40000003,E12000007,E14000676,E30000266,E38000048,R1K04,R1K,London North West University Healthcare NHS Trust,Ealing Hospital,E09000009,Ealing,"Ealing, Southall",NHS Ealing CCG,Slough and Heathrow,E54000027,North West London Health and Care Partnership
E02000274,Southall Green,-0.402663509770132,51.5007197734416,UB18 7AT,E40000003,E12000007,E14000676,E30000266,E38000048,R1K04,R1K,London North West University Healthcare NHS Trust,Ealing Hospital,E09000009,Ealing,"Ealing, Southall",NHS Ealing CCG,Slough and Heathrow,E54000027,North West London Health and Care Partnership
E02000275,Norwood Green South,-0.379384659691444,51.5046536884469,UB2 4AH,E40000003,E12000007,E14000676,E30000266,E38000048,R1K04,R1K,London North West University Healthcare NHS Trust,Ealing Hospital,E09000009,Ealing,"Ealing, Southall",NHS Ealing CCG,Slough and Heathrow,E54000027,North West London Health and Care Partnership
E02000276,South Ealing,-0.301215464168024,51.4949508671586,TW8 9QN,E40000003,E12000007,E14000676,E30000234,E38000048,RQM91,RQM,Chelsea And Westminster Hospital NHS Foundation Trust,West Middlesex University Hospital,E09000009,Ealing,"Ealing, Southall",NHS Ealing CCG,London,E54000027,North West London Health and Care Partnership
E02000277,Bullsmoor & Freezywater,-0.03394005297275,51.671679343521,EN3 6AR,E40000003,E12000007,E14000691,E30000234,E38000240,RALC7,RAL,Royal Free London NHS Foundation Trust,Chase Farm Hospital,E09000010,Enfield,Enfield North,NHS North Central London CCG,London,E54000028,North London Partners in Health and Care
E02000278,Turkey Street,-0.05189440218136,51.6732106636543,EN1 4NH,E40000003,E12000007,E14000691,E30000234,E38000240,RALC7,RAL,Royal Free London NHS Foundation Trust,Chase Farm Hospital,E09000010,Enfield,Enfield North,NHS North Central London CCG,London,E54000028,North London Partners in Health and Care
E02000279,Enfield Lock,-0.029165029780199,51.6710686676732,EN3 6AA,E40000003,E12000007,E14000691,E30000234,E38000240,RAPNM,RAP,North Middlesex University Hospital NHS Trust,North Middlesex Hospital,E09000010,Enfield,Enfield North,NHS North Central London CCG,London,E54000028,North London Partners in Health and Care
E02000280,Chase & Crews Hill,-0.078801147736793,51.6621347507226,EN1 3LD,E40000003,E12000007,E14000691,E30000234,E38000240,RALC7,RAL,Royal Free London NHS Foundation Trust,Chase Farm Hospital,E09000010,Enfield,Enfield North,NHS North Central London CCG,London,E54000028,North London Partners in Health and Care
E02000281,Carterhatch & Forty Hall,-0.058727235414362,51.6568228330853,EN1 3EA,E40000003,E12000007,E14000691,E30000234,E38000240,RAPNM,RAP,North Middlesex University Hospital NHS Trust,North Middlesex Hospital,E09000010,Enfield,Enfield North,NHS North Central London CCG,London,E54000028,North London Partners in Health and Care
E02000282,Enfield Wash,-0.050789568567864,51.6591912051657,EN1 3QB,E40000003,E12000007,E14000691,E30000234,E38000240,RAPNM,RAP,North Middlesex University Hospital NHS Trust,North Middlesex Hospital,E09000010,Enfield,Enfield North,NHS North Central London CCG,London,E54000028,North London Partners in Health and Care
E02000283,Brimsdown Avenue,-0.036090365444683,51.6597462189303,EN3 5DA,E40000003,E12000007,E14000691,E30000234,E38000240,RAPNM,RAP,North Middlesex University Hospital NHS Trust,North Middlesex Hospital,E09000010,Enfield,Enfield North,NHS North Central London CCG,London,E54000028,North London Partners in Health and Care
E02000284,Chase Side,-0.078848469326962,51.6524687495,EN1 1YS,E40000003,E12000007,E14000691,E30000234,E38000240,RALC7,RAL,Royal Free London NHS Foundation Trust,Chase Farm Hospital,E09000010,Enfield,Enfield North,NHS North Central London CCG,London,E54000028,North London Partners in Health and Care
E02000285,Enfield Town North,-0.073981615425958,51.6523530569365,EN1 1SA,E40000003,E12000007,E14000691,E30000234,E38000240,RALC7,RAL,Royal Free London NHS Foundation Trust,Chase Farm Hospital,E09000010,Enfield,Enfield North,NHS North Central London CCG,London,E54000028,North London Partners in Health and Care
E02000286,Chase Farm & The Ridgeway,-0.087231134515974,51.6525156692155,EN2 6AR,E40000003,E12000007,E14000692,E30000234,E38000240,RALC7,RAL,Royal Free London NHS Foundation Trust,Chase Farm Hospital,E09000010,Enfield,"Enfield, Southgate",NHS North Central London CCG,London,E54000028,North London Partners in Health and Care
E02000287,Cockfosters & Hadley Wood,-0.149391052694543,51.65009490015,EN4 0AA,E40000003,E12000007,E14000692,E30000234,E38000240,RALC7,RAL,Royal Free London NHS Foundation Trust,Chase Farm Hospital,E09000010,Enfield,"Enfield, Southgate",NHS North Central London CCG,London,E54000028,North London Partners in Health and Care
E02000288,Southbury East,-0.058895997574149,51.6542267998774,EN1 1AJ,E40000003,E12000007,E14000691,E30000234,E38000240,RAPNM,RAP,North Middlesex University Hospital NHS Trust,North Middlesex Hospital,E09000010,Enfield,Enfield North,NHS North Central London CCG,London,E54000028,North London Partners in Health and Care
E02000289,World's End,-0.106994659645825,51.6524762882175,EN2 7AD,E40000003,E12000007,E14000691,E30000234,E38000240,RALC7,RAL,Royal Free London NHS Foundation Trust,Chase Farm Hospital,E09000010,Enfield,Enfield North,NHS North Central London CCG,London,E54000028,North London Partners in Health and Care
E02000290,Brimsdown & Ponders End,-0.014235280728368,51.6423997204658,E4 7XB,E40000003,E12000007,E14000687,E30000234,E38000240,R1HKH,R1H,Barts Health NHS Trust,Whipps Cross University Hospital,E09000010,Enfield,Edmonton,NHS North Central London CCG,London,E54000028,North London Partners in Health and Care
E02000291,Enfield Town South & Bush Hill Park,-0.077079193366936,51.6519182335179,EN1 1AA,E40000003,E12000007,E14000691,E30000234,E38000240,RALC7,RAL,Royal Free London NHS Foundation Trust,Chase Farm Hospital,E09000010,Enfield,Enfield North,NHS North Central London CCG,London,E54000028,North London Partners in Health and Care
E02000292,Southbury West,-0.066315631907296,51.6456624986836,EN1 1AE,E40000003,E12000007,E14000691,E30000234,E38000240,RAPNM,RAP,North Middlesex University Hospital NHS Trust,North Middlesex Hospital,E09000010,Enfield,Enfield North,NHS North Central London CCG,London,E54000028,North London Partners in Health and Care
E02000293,Grange Park,-0.079694592052578,51.6430584440956,EN1 2BB,E40000003,E12000007,E14000692,E30000234,E38000240,RAPNM,RAP,North Middlesex University Hospital NHS Trust,North Middlesex Hospital,E09000010,Enfield,"Enfield, Southgate",NHS North Central London CCG,London,E54000028,North London Partners in Health and Care
E02000294,Ponders End South,-0.052942948060506,51.6440384847466,EN3 4AD,E40000003,E12000007,E14000687,E30000234,E38000240,RAPNM,RAP,North Middlesex University Hospital NHS Trust,North Middlesex Hospital,E09000010,Enfield,Edmonton,NHS North Central London CCG,London,E54000028,North London Partners in Health and Care
E02000295,Oakwood Park & Highlands,-0.13082842034106,51.6420493466348,N14 4DT,E40000003,E12000007,E14000692,E30000234,E38000240,RALC7,RAL,Royal Free London NHS Foundation Trust,Chase Farm Hospital,E09000010,Enfield,"Enfield, Southgate",NHS North Central London CCG,London,E54000028,North London Partners in Health and Care
E02000296,Southgate,-0.135651148822178,51.6478002602477,EN4 0BS,E40000003,E12000007,E14000692,E30000234,E38000240,RALC7,RAL,Royal Free London NHS Foundation Trust,Chase Farm Hospital,E09000010,Enfield,"Enfield, Southgate",NHS North Central London CCG,London,E54000028,North London Partners in Health and Care
E02000297,Bury Street West & Village Road,-0.075298373860892,51.6410710256886,EN1 2AB,E40000003,E12000007,E14000687,E30000234,E38000240,RAPNM,RAP,North Middlesex University Hospital NHS Trust,North Middlesex Hospital,E09000010,Enfield,Edmonton,NHS North Central London CCG,London,E54000028,North London Partners in Health and Care
E02000298,Winchmore Hill,-0.099429325649255,51.6329033761665,N13 4AN,E40000003,E12000007,E14000692,E30000234,E38000240,RAPNM,RAP,North Middlesex University Hospital NHS Trust,North Middlesex Hospital,E09000010,Enfield,"Enfield, Southgate",NHS North Central London CCG,London,E54000028,North London Partners in Health and Care
E02000299,Lower Edmonton North,-0.050558483555262,51.6275422603004,N9 0JU,E40000003,E12000007,E14000687,E30000234,E38000240,RAPNM,RAP,North Middlesex University Hospital NHS Trust,North Middlesex Hospital,E09000010,Enfield,Edmonton,NHS North Central London CCG,London,E54000028,North London Partners in Health and Care
E02000300,Haslebury North,-0.063690490420401,51.6377416275317,EN1 1EU,E40000003,E12000007,E14000687,E30000234,E38000240,RAPNM,RAP,North Middlesex University Hospital NHS Trust,North Middlesex Hospital,E09000010,Enfield,Edmonton,NHS North Central London CCG,London,E54000028,North London Partners in Health and Care
E02000301,Lower Edmonton South,-0.045222935050271,51.6276332400965,N9 0AA,E40000003,E12000007,E14000687,E30000234,E38000240,RAPNM,RAP,North Middlesex University Hospital NHS Trust,North Middlesex Hospital,E09000010,Enfield,Edmonton,NHS North Central London CCG,London,E54000028,North London Partners in Health and Care
E02000302,Palmers Green East,-0.093571860658014,51.6209832767008,N13 5AA,E40000003,E12000007,E14000692,E30000234,E38000240,RAPNM,RAP,North Middlesex University Hospital NHS Trust,North Middlesex Hospital,E09000010,Enfield,"Enfield, Southgate",NHS North Central London CCG,London,E54000028,North London Partners in Health and Care
E02000303,Haslebury South,-0.072621607611609,51.6162884594526,N18 1SA,E40000003,E12000007,E14000687,E30000234,E38000240,RAPNM,RAP,North Middlesex University Hospital NHS Trust,North Middlesex Hospital,E09000010,Enfield,Edmonton,NHS North Central London CCG,London,E54000028,North London Partners in Health and Care
E02000304,Southgate Green,-0.128292300961115,51.6166144912155,N11 1AR,E40000003,E12000007,E14000692,E30000234,E38000240,RKEQ4,RKE,Whittington Health NHS Trust,The Whittington Hospital,E09000010,Enfield,"Enfield, Southgate",NHS North Central London CCG,London,E54000028,North London Partners in Health and Care
E02000305,Palmers Green West,-0.107498638568424,51.6209660056507,N13 4AA,E40000003,E12000007,E14000692,E30000234,E38000240,RAPNM,RAP,North Middlesex University Hospital NHS Trust,North Middlesex Hospital,E09000010,Enfield,"Enfield, Southgate",NHS North Central London CCG,London,E54000028,North London Partners in Health and Care
E02000306,Edmonton Green,-0.054304809756413,51.6136029299436,N18 2DA,E40000003,E12000007,E14000687,E30000234,E38000240,RAPNM,RAP,North Middlesex University Hospital NHS Trust,North Middlesex Hospital,E09000010,Enfield,Edmonton,NHS North Central London CCG,London,E54000028,North London Partners in Health and Care
E02000307,Tatem Park,-0.098101056823063,51.6173519236659,N13 5BL,E40000003,E12000007,E14000692,E30000234,E38000240,RAPNM,RAP,North Middlesex University Hospital NHS Trust,North Middlesex Hospital,E09000010,Enfield,"Enfield, Southgate",NHS North Central London CCG,London,E54000028,North London Partners in Health and Care
E02000308,New Southgate & Arnos Grove,-0.134791664903731,51.615926628113,N11 1AA,E40000003,E12000007,E14000692,E30000234,E38000240,RKEQ4,RKE,Whittington Health NHS Trust,The Whittington Hospital,E09000010,Enfield,"Enfield, Southgate",NHS North Central London CCG,London,E54000028,North London Partners in Health and Care
E02000309,Upper Edmonton East & Meridian Water,-0.053643600536206,51.6087988746001,N17 0RY,E40000003,E12000007,E14000687,E30000234,E38000240,RAPNM,RAP,North Middlesex University Hospital NHS Trust,North Middlesex Hospital,E09000010,Enfield,Edmonton,NHS North Central London CCG,London,E54000028,North London Partners in Health and Care
E02000311,Bowes,-0.109842426341566,51.6114988007356,N13 4SP,E40000003,E12000007,E14000692,E30000234,E38000240,RAPNM,RAP,North Middlesex University Hospital NHS Trust,North Middlesex Hospital,E09000010,Enfield,"Enfield, Southgate",NHS North Central London CCG,London,E54000028,North London Partners in Health and Care
E02000312,Broomfield Park,-0.110686994922612,51.6092463148653,N11 1RW,E40000003,E12000007,E14000692,E30000234,E38000240,RAPNM,RAP,North Middlesex University Hospital NHS Trust,North Middlesex Hospital,E09000010,Enfield,"Enfield, Southgate",NHS North Central London CCG,London,E54000028,North London Partners in Health and Care
E02000313,Thamesmead Birchmere Park,0.117692620594047,51.5032148788456,SE28 8AA,E40000003,E12000007,E14000696,E30000234,E38000244,RJ231,RJ2,Lewisham And Greenwich NHS Trust,Queen Elizabeth Hospital,E09000011,Greenwich,Erith and Thamesmead,NHS South East London CCG,London,E54000030,Our Healthier South East London
E02000314,West Thamesmead,0.104477706370441,51.4984977507673,SE2 0DJ,E40000003,E12000007,E14000696,E30000234,E38000244,RJ231,RJ2,Lewisham And Greenwich NHS Trust,Queen Elizabeth Hospital,E09000011,Greenwich,Erith and Thamesmead,NHS South East London CCG,London,E54000030,Our Healthier South East London
E02000315,Abbey Wood North,0.119321449678926,51.4926728944742,SE2 9AA,E40000003,E12000007,E14000696,E30000234,E38000244,RJ231,RJ2,Lewisham And Greenwich NHS Trust,Queen Elizabeth Hospital,E09000011,Greenwich,Erith and Thamesmead,NHS South East London CCG,London,E54000030,Our Healthier South East London
E02000316,"Woolwich Dockyard, Arsenal & Charlton Riverside",0.069420355271282,51.494310599365,SE18 4DX,E40000003,E12000007,E14000718,E30000234,E38000244,RJ231,RJ2,Lewisham And Greenwich NHS Trust,Queen Elizabeth Hospital,E09000011,Greenwich,Greenwich and Woolwich,NHS South East London CCG,London,E54000030,Our Healthier South East London
E02000317,Woolwich West,0.05750403566158,51.4875508835599,SE18 4AB,E40000003,E12000007,E14000718,E30000234,E38000244,RJ231,RJ2,Lewisham And Greenwich NHS Trust,Queen Elizabeth Hospital,E09000011,Greenwich,Greenwich and Woolwich,NHS South East London CCG,London,E54000030,Our Healthier South East London
E02000318,Plumstead High Street,0.086455616688189,51.4881453655705,SE18 1AF,E40000003,E12000007,E14000696,E30000234,E38000244,RJ231,RJ2,Lewisham And Greenwich NHS Trust,Queen Elizabeth Hospital,E09000011,Greenwich,Erith and Thamesmead,NHS South East London CCG,London,E54000030,Our Healthier South East London
E02000319,Plumstead Common & Riverside,0.084760599013687,51.4844614625989,SE18 1AA,E40000003,E12000007,E14000718,E30000234,E38000244,RJ231,RJ2,Lewisham And Greenwich NHS Trust,Queen Elizabeth Hospital,E09000011,Greenwich,Greenwich and Woolwich,NHS South East London CCG,London,E54000030,Our Healthier South East London
E02000320,Abbey Wood South,0.116404500066219,51.477599533464,SE2 0AS,E40000003,E12000007,E14000696,E30000234,E38000244,RN7QM,RN7,Dartford And Gravesham NHS Trust,Queen Mary's Hospital Sidcup,E09000011,Greenwich,Erith and Thamesmead,NHS South East London CCG,London,E54000030,Our Healthier South East London
E02000321,Woolwich Glyndon,0.07666093949693,51.4815026579961,SE18 2SS,E40000003,E12000007,E14000718,E30000234,E38000244,RJ231,RJ2,Lewisham And Greenwich NHS Trust,Queen Elizabeth Hospital,E09000011,Greenwich,Greenwich and Woolwich,NHS South East London CCG,London,E54000030,Our Healthier South East London
E02000323,Woolwich South,0.067173484179678,51.4895480515315,SE18 1DT,E40000003,E12000007,E14000718,E30000234,E38000244,RJ231,RJ2,Lewisham And Greenwich NHS Trust,Queen Elizabeth Hospital,E09000011,Greenwich,Greenwich and Woolwich,NHS South East London CCG,London,E54000030,Our Healthier South East London
E02000324,Charlton Village,0.049488296059025,51.4848315855487,SE18 4BL,E40000003,E12000007,E14000718,E30000234,E38000244,RJ231,RJ2,Lewisham And Greenwich NHS Trust,Queen Elizabeth Hospital,E09000011,Greenwich,Greenwich and Woolwich,NHS South East London CCG,London,E54000030,Our Healthier South East London
